stop_id,stop_nr,stop_name,stop_lat,stop_lon,stop_desc,location_type,parent_station,parent_nr,wheelchair_boarding,vehicle_type,platform_code,kommunenavn,kommunenummer
NSR:StopPlace:19591,19591,Revura,59.038055,8.266929,,sann,,,,700,,Fyresdal,"4032"
NSR:StopPlace:19658,19658,Grundvik,59.193867,8.087916,,sann,,,,700,,Fyresdal,"4032"
NSR:StopPlace:19682,19682,Gråndalen,59.130136,8.143256,,sann,,,,700,,Fyresdal,"4032"
NSR:StopPlace:19819,19819,Sannes,59.145051,8.087147,,sann,,,,700,,Fyresdal,"4032"
NSR:StopPlace:19885,19885,Fardal,59.142023,8.035424,,sann,,,,700,,Fyresdal,"4032"
NSR:StopPlace:19911,19911,Hauggrend,59.321277,8.139862,,sann,,,,700,,Fyresdal,"4032"
NSR:StopPlace:19999,19999,Hegglandsgrend,59.233835,8.087476,,sann,,,,700,,Fyresdal,"4032"
NSR:StopPlace:20030,20030,Skogsleiren,59.232843,7.954847,,sann,,,,700,,Fyresdal,"4032"
NSR:StopPlace:20048,20048,Skomedal,59.069205,8.265219,,sann,,,,700,,Fyresdal,"4032"
NSR:StopPlace:20088,20088,Flaten,59.232062,8.003056,,sann,,,,700,,Fyresdal,"4032"
NSR:StopPlace:20290,20290,Hosum,59.265875,8.079082,,sann,,,,700,,Fyresdal,"4032"
NSR:StopPlace:20300,20300,Bondal,59.236424,7.971405,,sann,,,,700,,Fyresdal,"4032"
NSR:StopPlace:20401,20401,Momrak,59.136798,8.120355,,sann,,,,700,,Fyresdal,"4032"
NSR:StopPlace:20402,20402,Geitestadgrend,59.239113,8.097294,,sann,,,,700,,Fyresdal,"4032"
NSR:StopPlace:20404,20404,Fyresdal Gimle skule,59.185883,8.08881,,sann,,,,700,,Fyresdal,"4032"
NSR:StopPlace:20623,20623,Nesland,59.158836,8.082681,,sann,,,,700,,Fyresdal,"4032"
NSR:StopPlace:20688,20688,Basthommen,59.109445,8.173499,,sann,,,,700,,Fyresdal,"4032"
NSR:StopPlace:20739,20739,Bergland,59.167735,8.0837,,sann,,,,700,,Fyresdal,"4032"
NSR:StopPlace:20743,20743,Libru,59.247189,7.890004,,sann,,,,700,,Fyresdal,"4032"
NSR:StopPlace:20864,20864,Juvahytta,59.092106,8.235135,,sann,,,,700,,Fyresdal,"4032"
NSR:StopPlace:20871,20871,Metveit,59.240136,7.931026,,sann,,,,700,,Fyresdal,"4032"
NSR:StopPlace:20939,20939,Kilegrend,59.009721,8.273816,,sann,,,,700,,Fyresdal,"4032"
NSR:StopPlace:20955,20955,Breivik,59.116137,8.078576,,sann,,,,700,,Fyresdal,"4032"
NSR:StopPlace:21052,21052,Kleivgrend kryss,59.241645,8.08126,,sann,,,,700,,Fyresdal,"4032"
NSR:StopPlace:21293,21293,Valebjørg,59.061454,8.265984,,sann,,,,700,,Fyresdal,"4032"
NSR:StopPlace:21295,21295,Skårmoen,59.235049,8.058151,,sann,,,,700,,Fyresdal,"4032"
NSR:StopPlace:21515,21515,Verpe,59.19979,8.08458,,sann,,,,700,,Fyresdal,"4032"
NSR:StopPlace:21572,21572,Veum,59.284264,8.089586,,sann,,,,700,,Fyresdal,"4032"
NSR:StopPlace:21608,21608,Vik,59.170267,8.040515,,sann,,,,700,,Fyresdal,"4032"
NSR:StopPlace:21674,21674,Åslandsgrend,59.247417,8.03628,,sann,,,,700,,Fyresdal,"4032"
NSR:StopPlace:60817,60817,Timmerud,59.337147,8.141672,,sann,,,,700,,Fyresdal,"4032"
NSR:StopPlace:60827,60827,Lii,59.130241,8.06907,,sann,,,,700,,Fyresdal,"4032"
NSR:StopPlace:60833,60833,Veum nordre,59.304171,8.119246,,sann,,,,700,,Fyresdal,"4032"
NSR:StopPlace:62135,62135,Gryte,59.254183,8.075713,,sann,,,,700,,Fyresdal,"4032"
NSR:StopPlace:62147,62147,Sundsli,59.018708,8.278619,,sann,,,,700,,Fyresdal,"4032"
NSR:StopPlace:63421,63421,Jernberg,59.136237,7.992556,,sann,,,,700,,Fyresdal,"4032"
NSR:StopPlace:19527,19527,Platonsvingen,59.579432,9.268663,,sann,,,,700,,Notodden,"4005"
NSR:StopPlace:19561,19561,Ramberghjørnet,59.565499,9.266906,,sann,,,,700,,Notodden,"4005"
NSR:StopPlace:19574,19574,Grene,59.582612,9.132917,,sann,,,,700,,Notodden,"4005"
NSR:StopPlace:19588,19588,Rekå,59.60091,9.11645,,sann,,,,700,,Notodden,"4005"
NSR:StopPlace:19648,19648,Rudsgrend,59.843835,8.948195,,sann,,,,700,,Notodden,"4005"
NSR:StopPlace:19677,19677,Rygi,59.581071,9.169629,,sann,,,,700,,Notodden,"4005"
NSR:StopPlace:19713,19713,Grønnvollfoss,59.655204,9.211021,,sann,,,,700,,Notodden,"4005"
NSR:StopPlace:19752,19752,Sagafoss,59.572629,9.261747,,sann,,,,700,,Notodden,"4005"
NSR:StopPlace:19853,19853,Schia,59.618563,9.279838,,sann,,,,700,,Notodden,"4005"
NSR:StopPlace:19868,19868,Sem snuplass,59.570435,9.204782,,sann,,,,700,,Notodden,"4005"
NSR:StopPlace:19872,19872,Semsøyan,59.564312,9.226644,,sann,,,,700,,Notodden,"4005"
NSR:StopPlace:19880,19880,Haugan,59.598244,9.06193,,sann,,,,700,,Notodden,"4005"
NSR:StopPlace:19891,19891,Haugedal,59.520249,9.311193,,sann,,,,700,,Notodden,"4005"
NSR:StopPlace:19899,19899,Haugen,59.570813,9.166367,,sann,,,,700,,Notodden,"4005"
NSR:StopPlace:19902,19902,Siljudalen,59.672137,9.016208,,sann,,,,700,,Notodden,"4005"
NSR:StopPlace:19906,19906,Simones,59.518704,9.279876,,sann,,,,700,,Notodden,"4005"
NSR:StopPlace:19907,19907,Haugetufttjønn,59.600536,9.109393,,sann,,,,700,,Notodden,"4005"
NSR:StopPlace:19922,19922,Haugmoen,59.575481,9.193742,,sann,,,,700,,Notodden,"4005"
NSR:StopPlace:19976,19976,Finnekåsa,59.737264,9.019982,,sann,,,,700,,Notodden,"4005"
NSR:StopPlace:19983,19983,Heddal barneskule,59.580049,9.173238,,sann,,,,700,,Notodden,"4005"
NSR:StopPlace:19985,19985,Heddal ungdomsskule,59.568573,9.210484,,sann,,,,700,,Notodden,"4005"
NSR:StopPlace:19988,19988,Heddalsveien,59.559639,9.251167,,sann,,,,700,,Notodden,"4005"
NSR:StopPlace:19993,19993,Hefre,59.551358,9.213867,,sann,,,,700,,Notodden,"4005"
NSR:StopPlace:19995,19995,Skilrud,59.573131,9.198476,,sann,,,,700,,Notodden,"4005"
NSR:StopPlace:20004,20004,Fjellmannveien,59.563103,9.249419,,sann,,,,700,,Notodden,"4005"
NSR:StopPlace:20021,20021,Skogen nord,59.585429,9.271316,,sann,,,,700,,Notodden,"4005"
NSR:StopPlace:20040,20040,Skoland,59.562403,9.264464,,sann,,,,700,,Notodden,"4005"
NSR:StopPlace:20042,20042,Skolegata,59.563803,9.266005,,sann,,,,700,,Notodden,"4005"
NSR:StopPlace:20064,20064,Landsverk Lisleherad kyrkje,59.613401,9.265753,,sann,,,,700,,Notodden,"4005"
NSR:StopPlace:20067,20067,Lisleherad skole,59.598727,9.273207,,sann,,,,700,,Notodden,"4005"
NSR:StopPlace:20070,20070,Lisleherad torv,59.597836,9.272837,,sann,,,,700,,Notodden,"4005"
NSR:StopPlace:20094,20094,Helleberggrenda,59.735708,9.230272,,sann,,,,700,,Notodden,"4005"
NSR:StopPlace:20097,20097,Hellebrekkveien,59.576584,9.258104,,sann,,,,700,,Notodden,"4005"
NSR:StopPlace:20122,20122,Flåterud,59.547694,9.226952,,sann,,,,700,,Notodden,"4005"
NSR:StopPlace:20186,20186,Hjukse,59.503823,9.329715,,sann,,,,700,,Notodden,"4005"
NSR:StopPlace:20189,20189,Hjuksebø,59.49731,9.330103,,sann,,,,700,,Notodden,"4005"
NSR:StopPlace:20192,20192,Hjuksebø skole,59.50759,9.333057,,sann,,,,700,,Notodden,"4005"
NSR:StopPlace:20194,20194,Lynnevik,59.753073,9.018343,,sann,,,,700,,Notodden,"4005"
NSR:StopPlace:20195,20195,Hjuksevelta,59.511825,9.320041,,sann,,,,700,,Notodden,"4005"
NSR:StopPlace:20242,20242,Holtas plass,59.560313,9.260085,,sann,,,,700,,Notodden,"4005"
NSR:StopPlace:20251,20251,Meaksmoen,59.570784,9.256962,,sann,,,,700,,Notodden,"4005"
NSR:StopPlace:20279,20279,Melås,59.59364,9.091684,,sann,,,,700,,Notodden,"4005"
NSR:StopPlace:20292,20292,Furumoen,59.594468,9.035964,,sann,,,,700,,Notodden,"4005"
NSR:StopPlace:20293,20293,Merde,59.56193,9.230289,,sann,,,,700,,Notodden,"4005"
NSR:StopPlace:20314,20314,Fyrileiv,59.595775,9.139294,,sann,,,,700,,Notodden,"4005"
NSR:StopPlace:20316,20316,Hustveit,59.565094,9.178636,,sann,,,,700,,Notodden,"4005"
NSR:StopPlace:20345,20345,Snippen,59.615883,9.282439,,sann,,,,700,,Notodden,"4005"
NSR:StopPlace:20390,20390,Høgås skole,59.563036,9.305085,,sann,,,,700,,Notodden,"4005"
NSR:StopPlace:20395,20395,Høgåstunet,59.563674,9.302394,,sann,,,,700,,Notodden,"4005"
NSR:StopPlace:20396,20396,Gavlesjåvegen,59.591222,9.064805,,sann,,,,700,,Notodden,"4005"
NSR:StopPlace:20435,20435,Gjermund Haugens veg,59.56015,9.308762,,sann,,,,700,,Notodden,"4005"
NSR:StopPlace:20453,20453,Ingebjørg Mælandsmo veg,59.575935,9.201523,,sann,,,,700,,Notodden,"4005"
NSR:StopPlace:20457,20457,Gjesterudtoppen,59.544796,9.293669,,sann,,,,700,,Notodden,"4005"
NSR:StopPlace:20458,20458,Innleggen,59.482251,9.327983,,sann,,,,700,,Notodden,"4005"
NSR:StopPlace:20472,20472,Glittenberg,59.573683,9.158877,,sann,,,,700,,Notodden,"4005"
NSR:StopPlace:20489,20489,Gransherad Gryta,59.688282,9.025843,,sann,,,,700,,Notodden,"4005"
NSR:StopPlace:20492,20492,Gransherad Kyrkjetjønna,59.689218,9.03048,,sann,,,,700,,Notodden,"4005"
NSR:StopPlace:20495,20495,Gransherad,59.690614,9.038371,,sann,,,,700,,Notodden,"4005"
NSR:StopPlace:20499,20499,Gransherad skole,59.692258,9.027412,,sann,,,,700,,Notodden,"4005"
NSR:StopPlace:20508,20508,Kristian Lofthus gate,59.576073,9.260915,,sann,,,,700,,Notodden,"4005"
NSR:StopPlace:20545,20545,Anundskåsveien,59.57217,9.255557,,sann,,,,700,,Notodden,"4005"
NSR:StopPlace:20549,20549,Kvantum,59.56636,9.216773,,sann,,,,700,,Notodden,"4005"
NSR:StopPlace:20613,20613,Landsverk,59.540588,9.294077,,sann,,,,700,,Notodden,"4005"
NSR:StopPlace:20645,20645,Nils Bjørnebu,59.570125,9.290594,,sann,,,,700,,Notodden,"4005"
NSR:StopPlace:20669,20669,Bamle,59.602082,9.047905,,sann,,,,700,,Notodden,"4005"
NSR:StopPlace:20674,20674,Larskåsvegen,59.573277,9.20333,,sann,,,,700,,Notodden,"4005"
NSR:StopPlace:20714,20714,Nordbygda skule,59.599598,9.093201,,sann,,,,700,,Notodden,"4005"
NSR:StopPlace:20751,20751,Lie Jørgensens veg,59.5666,9.300042,,sann,,,,700,,Notodden,"4005"
NSR:StopPlace:20757,20757,Notodden lufthavn,59.565521,9.221027,,sann,,,,700,,Notodden,"4005"
NSR:StopPlace:20769,20769,Tinnegrend grendehus,59.535856,9.296791,,sann,,,,700,,Notodden,"4005"
NSR:StopPlace:20770,20770,Notodden torv,59.559447,9.258637,,sann,,,,700,,Notodden,"4005"
NSR:StopPlace:20775,20775,Biltilsynet,59.567458,9.220847,,sann,,,,700,,Notodden,"4005"
NSR:StopPlace:20832,20832,Jamtveit,59.588005,9.112299,,sann,,,,700,,Notodden,"4005"
NSR:StopPlace:20850,20850,O.G. Hauges veg,59.57514,9.197871,,sann,,,,700,,Notodden,"4005"
NSR:StopPlace:20853,20853,Oasen,59.56733,9.210126,,sann,,,,700,,Notodden,"4005"
NSR:StopPlace:20856,20856,Bolkesjø,59.726441,9.275371,,sann,,,,700,,Notodden,"4005"
NSR:StopPlace:20859,20859,Jorehaugen,59.696253,9.109785,,sann,,,,700,,Notodden,"4005"
NSR:StopPlace:20890,20890,Olav Bjaalands gate,59.573013,9.259582,,sann,,,,700,,Notodden,"4005"
NSR:StopPlace:20915,20915,Kantebakke,59.52813,9.267382,,sann,,,,700,,Notodden,"4005"
NSR:StopPlace:20918,20918,Kasin,59.598467,9.095538,,sann,,,,700,,Notodden,"4005"
NSR:StopPlace:20920,20920,Kasinmoen,59.577394,9.266045,,sann,,,,700,,Notodden,"4005"
NSR:StopPlace:20922,20922,Kasinvegen,59.572544,9.205733,,sann,,,,700,,Notodden,"4005"
NSR:StopPlace:20925,20925,Kaste,59.546264,9.246013,,sann,,,,700,,Notodden,"4005"
NSR:StopPlace:20927,20927,Kattekleiv,59.560126,9.269395,,sann,,,,700,,Notodden,"4005"
NSR:StopPlace:20931,20931,Ormemyr,59.726371,9.165275,,sann,,,,700,,Notodden,"4005"
NSR:StopPlace:20941,20941,Brattrein,59.553244,9.280789,,sann,,,,700,,Notodden,"4005"
NSR:StopPlace:20948,20948,Oterbekk,59.698445,9.014049,,sann,,,,700,,Notodden,"4005"
NSR:StopPlace:20961,20961,Lienvegen kryss,59.572057,9.266429,,sann,,,,700,,Notodden,"4005"
NSR:StopPlace:21013,21013,Kjærlighetsstien,59.565272,9.282788,,sann,,,,700,,Notodden,"4005"
NSR:StopPlace:21037,21037,Tuvensenteret,59.566174,9.224203,,sann,,,,700,,Notodden,"4005"
NSR:StopPlace:21050,21050,Kleivane,59.561216,9.242442,,sann,,,,700,,Notodden,"4005"
NSR:StopPlace:21068,21068,Tveitan,59.524641,9.306207,,sann,,,,700,,Notodden,"4005"
NSR:StopPlace:21085,21085,Tveitdalen,59.556767,9.279484,,sann,,,,700,,Notodden,"4005"
NSR:StopPlace:21090,21090,Tveitdalen kryss,59.556679,9.277329,,sann,,,,700,,Notodden,"4005"
NSR:StopPlace:21095,21095,Busnesgrend,59.806798,8.991572,,sann,,,,700,,Notodden,"4005"
NSR:StopPlace:21106,21106,Tveiten,59.551918,9.287239,,sann,,,,700,,Notodden,"4005"
NSR:StopPlace:21196,21196,Carlsen,59.584616,9.162522,,sann,,,,700,,Notodden,"4005"
NSR:StopPlace:21209,21209,Surtetjønnvegen,59.569964,9.297183,,sann,,,,700,,Notodden,"4005"
NSR:StopPlace:21232,21232,Svelgfoss,59.601046,9.273465,,sann,,,,700,,Notodden,"4005"
NSR:StopPlace:21239,21239,Dalen,59.605197,9.023308,,sann,,,,700,,Notodden,"4005"
NSR:StopPlace:21245,21245,Svintrud,59.57773,9.183046,,sann,,,,700,,Notodden,"4005"
NSR:StopPlace:21255,21255,Sykehuset Notodden,59.566529,9.254037,,sann,,,,700,,Notodden,"4005"
NSR:StopPlace:21281,21281,Sætre,59.570672,9.271909,,sann,,,,700,,Notodden,"4005"
NSR:StopPlace:21351,21351,Thomoen,59.693553,9.04681,,sann,,,,700,,Notodden,"4005"
NSR:StopPlace:21365,21365,Tinfos,59.569706,9.261813,,sann,,,,700,,Notodden,"4005"
NSR:StopPlace:21370,21370,Tinnebyen,59.55992,9.278272,,sann,,,,700,,Notodden,"4005"
NSR:StopPlace:21372,21372,Tinnegrend,59.529066,9.305895,,sann,,,,700,,Notodden,"4005"
NSR:StopPlace:21373,21373,Tinnegrendtoppen,59.533053,9.300064,,sann,,,,700,,Notodden,"4005"
NSR:StopPlace:21378,21378,Tinnes nord,59.56325,9.241563,,sann,,,,700,,Notodden,"4005"
NSR:StopPlace:21381,21381,Tinnesgata,59.565653,9.258499,,sann,,,,700,,Notodden,"4005"
NSR:StopPlace:21383,21383,Tinnesjordet,59.562614,9.245505,,sann,,,,700,,Notodden,"4005"
NSR:StopPlace:21386,21386,Tinnesmoen skole,59.571606,9.259836,,sann,,,,700,,Notodden,"4005"
NSR:StopPlace:21388,21388,Tinnoset,59.720367,9.019027,,sann,,,,700,,Notodden,"4005"
NSR:StopPlace:21391,21391,Tinnå bru,59.558427,9.254958,,sann,,,,700,,Notodden,"4005"
NSR:StopPlace:21425,21425,Tjønnås,59.643648,9.008122,,sann,,,,700,,Notodden,"4005"
NSR:StopPlace:21451,21451,Toppen,59.564123,9.276329,,sann,,,,700,,Notodden,"4005"
NSR:StopPlace:21477,21477,Velta,59.596562,9.073331,,sann,,,,700,,Notodden,"4005"
NSR:StopPlace:21482,21482,Steingardsbakken,59.560647,9.279309,,sann,,,,700,,Notodden,"4005"
NSR:StopPlace:21483,21483,Steinmoen,59.547643,9.234867,,sann,,,,700,,Notodden,"4005"
NSR:StopPlace:21506,21506,Tråserudvegen,59.591312,9.078344,,sann,,,,700,,Notodden,"4005"
NSR:StopPlace:21509,21509,Tubaas,59.5901,9.11077,,sann,,,,700,,Notodden,"4005"
NSR:StopPlace:21518,21518,Stivi,59.592359,9.147755,,sann,,,,700,,Notodden,"4005"
NSR:StopPlace:21529,21529,Viperud,59.598382,9.126978,,sann,,,,700,,Notodden,"4005"
NSR:StopPlace:21532,21532,Viperudmoen,59.596545,9.134951,,sann,,,,700,,Notodden,"4005"
NSR:StopPlace:21552,21552,Strand,59.539591,9.257791,,sann,,,,700,,Notodden,"4005"
NSR:StopPlace:21577,21577,Veveriet,59.576808,9.268756,,sann,,,,700,,Notodden,"4005"
NSR:StopPlace:21585,21585,Strupa,59.568128,9.21459,,sann,,,,700,,Notodden,"4005"
NSR:StopPlace:21598,21598,Viggo Hansteens gate,59.572557,9.270948,,sann,,,,700,,Notodden,"4005"
NSR:StopPlace:21611,21611,Willys torv,59.558711,9.25749,,sann,,,,700,,Notodden,"4005"
NSR:StopPlace:21620,21620,Yli,59.559682,9.198877,,sann,,,,700,,Notodden,"4005"
NSR:StopPlace:21622,21622,Yli skole,59.561613,9.193117,,sann,,,,700,,Notodden,"4005"
NSR:StopPlace:21652,21652,Årlifoss,59.6837,9.148146,,sann,,,,700,,Notodden,"4005"
NSR:StopPlace:21679,21679,ØTA næringspark,59.55065,9.290542,,sann,,,,700,,Notodden,"4005"
NSR:StopPlace:21687,21687,Ørvella E134,59.611147,9.017228,,sann,,,,700,,Notodden,"4005"
NSR:StopPlace:21688,21688,Ørvella fv. 361,59.611345,9.019528,,sann,,,,700,,Notodden,"4005"
NSR:StopPlace:21698,21698,Øvre Anundskås,59.574802,9.254355,,sann,,,,700,,Notodden,"4005"
NSR:StopPlace:21712,21712,Øygardsvegen,59.593889,9.046538,,sann,,,,700,,Notodden,"4005"
NSR:StopPlace:62164,62164,Helleberg,59.735727,9.218393,,sann,,,,700,,Notodden,"4005"
NSR:StopPlace:62166,62166,Aarlia,59.642526,9.217666,,sann,,,,700,,Notodden,"4005"
NSR:StopPlace:62167,62167,Stormo,59.618678,9.25496,,sann,,,,700,,Notodden,"4005"
NSR:StopPlace:62168,62168,Graver,59.607125,9.282417,,sann,,,,700,,Notodden,"4005"
NSR:StopPlace:62170,62170,Lienfoss,59.581422,9.259487,,sann,,,,700,,Notodden,"4005"
NSR:StopPlace:62984,62984,Kirkeparken,59.56151,9.262995,,sann,,,,700,,Notodden,"4005"
NSR:StopPlace:63006,63006,Søndre Tveiten gate,59.551025,9.285277,,sann,,,,700,,Notodden,"4005"
NSR:StopPlace:63907,63907,Gransherad skole Lihølen,59.693749,9.025553,,sann,,,,700,,Notodden,"4005"
NSR:StopPlace:6471,6471,Kufaveien,59.582416,9.270397,,sann,,,,700,,Notodden,"4005"
NSR:StopPlace:20762,20762,Notodden skysstasjon,59.556691,9.256392,,sann,,,sann,700,,Notodden,"4005"
NSR:StopPlace:19571,19571,Dauvi,59.520562,8.19923,,sann,,,,700,,Tokke,"4034"
NSR:StopPlace:19718,19718,Eidsborg stavkyrkje,59.465135,8.022655,,sann,,,,700,,Tokke,"4034"
NSR:StopPlace:19723,19723,Eidsborg øvre,59.469487,8.025517,,sann,,,,700,,Tokke,"4034"
NSR:StopPlace:19828,19828,Gåstjønn,59.368422,8.103735,,sann,,,,700,,Tokke,"4034"
NSR:StopPlace:19835,19835,Gøytil kryss,59.546013,8.016184,,sann,,,,700,,Tokke,"4034"
NSR:StopPlace:19836,19836,Sannlandsmoen rasteplass,59.372468,8.052695,,sann,,,,700,,Tokke,"4034"
NSR:StopPlace:19866,19866,Seltveit,59.40478,8.024704,,sann,,,,700,,Tokke,"4034"
NSR:StopPlace:19895,19895,Haugehåtveit,59.489914,7.958735,,sann,,,,700,,Tokke,"4034"
NSR:StopPlace:19926,19926,Haugo,59.538375,7.814841,,sann,,,,700,,Tokke,"4034"
NSR:StopPlace:20024,20024,Heimdal kryss,59.478561,8.118685,,sann,,,,700,,Tokke,"4034"
NSR:StopPlace:20031,20031,Heimdalstøtta,59.443744,8.157866,,sann,,,,700,,Tokke,"4034"
NSR:StopPlace:20033,20033,Svening,59.469701,8.048841,,sann,,,,700,,Tokke,"4034"
NSR:StopPlace:20063,20063,Liosvingen,59.469689,7.947208,,sann,,,,700,,Tokke,"4034"
NSR:StopPlace:20079,20079,Ljostad,59.486021,7.840408,,sann,,,,700,,Tokke,"4034"
NSR:StopPlace:20199,20199,Lårdal,59.424353,8.187971,,sann,,,,700,,Tokke,"4034"
NSR:StopPlace:20201,20201,Lårdal skule,59.425767,8.180772,,sann,,,,700,,Tokke,"4034"
NSR:StopPlace:20252,20252,Holtebru,59.429345,8.003037,,sann,,,,700,,Tokke,"4034"
NSR:StopPlace:20312,20312,Midjås kryss,59.445045,7.928254,,sann,,,,700,,Tokke,"4034"
NSR:StopPlace:20342,20342,Håtveit,59.479794,7.855038,,sann,,,,700,,Tokke,"4034"
NSR:StopPlace:20350,20350,Mo,59.48213,7.84245,,sann,,,,700,,Tokke,"4034"
NSR:StopPlace:20413,20413,Høydalsmo,59.496229,8.202485,,sann,,,,700,,Tokke,"4034"
NSR:StopPlace:20416,20416,Høydalsmo kirke,59.490718,8.231324,,sann,,,,700,,Tokke,"4034"
NSR:StopPlace:20418,20418,Høydalsmo skule,59.498696,8.192609,,sann,,,,700,,Tokke,"4034"
NSR:StopPlace:20432,20432,Mostøyl,59.490569,8.301289,,sann,,,,700,,Tokke,"4034"
NSR:StopPlace:20487,20487,Myrvang,59.384539,8.158055,,sann,,,,700,,Tokke,"4034"
NSR:StopPlace:20520,20520,Krossli,59.364022,8.15435,,sann,,,,700,,Tokke,"4034"
NSR:StopPlace:20543,20543,Mørke,59.543165,8.192681,,sann,,,,700,,Tokke,"4034"
NSR:StopPlace:20575,20575,Kvålsgrend,59.4893,8.248396,,sann,,,,700,,Tokke,"4034"
NSR:StopPlace:20640,20640,Nevahaugsleet,59.563097,7.812391,,sann,,,,700,,Tokke,"4034"
NSR:StopPlace:20829,20829,Lio,59.445522,7.983719,,sann,,,,700,,Tokke,"4034"
NSR:StopPlace:20870,20870,Ofteli,59.511025,8.200468,,sann,,,,700,,Tokke,"4034"
NSR:StopPlace:20952,20952,Breisett,59.55583,8.186875,,sann,,,,700,,Tokke,"4034"
NSR:StopPlace:21054,21054,Kleivi,59.441693,8.176322,,sann,,,,700,,Tokke,"4034"
NSR:StopPlace:21065,21065,Kleppholt,59.455923,7.846695,,sann,,,,700,,Tokke,"4034"
NSR:StopPlace:21066,21066,Kleppo,59.458388,8.021925,,sann,,,,700,,Tokke,"4034"
NSR:StopPlace:21093,21093,Tveiten,59.491349,8.167536,,sann,,,,700,,Tokke,"4034"
NSR:StopPlace:21110,21110,Byrte,59.568397,7.815482,,sann,,,,700,,Tokke,"4034"
NSR:StopPlace:21112,21112,Byrte dam,59.495073,7.834203,,sann,,,,700,,Tokke,"4034"
NSR:StopPlace:21116,21116,Byrte skule,59.556589,7.812235,,sann,,,,700,,Tokke,"4034"
NSR:StopPlace:21131,21131,Tveito,59.437872,8.18009,,sann,,,,700,,Tokke,"4034"
NSR:StopPlace:21174,21174,Tønsberg kryss,59.444121,7.978853,,sann,,,,700,,Tokke,"4034"
NSR:StopPlace:21221,21221,Underdal,59.447634,7.872895,,sann,,,,700,,Tokke,"4034"
NSR:StopPlace:21241,21241,Dalen sentrumsbygget,59.444659,8.010924,,sann,,,,700,,Tokke,"4034"
NSR:StopPlace:21242,21242,Svingen,59.413129,8.019623,,sann,,,,700,,Tokke,"4034"
NSR:StopPlace:21249,21249,Dalen sentrum,59.444578,8.007478,,sann,,,,700,,Tokke,"4034"
NSR:StopPlace:21251,21251,Dalen skuler,59.445998,7.98746,,sann,,,,700,,Tokke,"4034"
NSR:StopPlace:21317,21317,Slettetveit,59.467924,7.841701,,sann,,,,700,,Tokke,"4034"
NSR:StopPlace:21338,21338,Smørklepp,59.48504,8.118323,,sann,,,,700,,Tokke,"4034"
NSR:StopPlace:21466,21466,Torshaug,59.396555,8.165669,,sann,,,,700,,Tokke,"4034"
NSR:StopPlace:21469,21469,Stavli,59.471768,8.076936,,sann,,,,700,,Tokke,"4034"
NSR:StopPlace:21538,21538,Vistad,59.448193,7.965252,,sann,,,,700,,Tokke,"4034"
NSR:StopPlace:21541,21541,Vistadmoen,59.449495,7.950732,,sann,,,,700,,Tokke,"4034"
NSR:StopPlace:21621,21621,Villasvingen,59.447397,8.016171,,sann,,,,700,,Tokke,"4034"
NSR:StopPlace:21640,21640,Åmdals Verk,59.376549,8.039955,,sann,,,,700,,Tokke,"4034"
NSR:StopPlace:21672,21672,Åsland,59.531583,8.188167,,sann,,,,700,,Tokke,"4034"
NSR:StopPlace:58426,58426,Åmdals Verk skule,59.376503,8.03545,,sann,,,,700,,Tokke,"4034"
NSR:StopPlace:58429,58429,Grønli,59.531645,8.110328,,sann,,,,700,,Tokke,"4034"
NSR:StopPlace:58430,58430,Huka,59.527079,8.140773,,sann,,,,700,,Tokke,"4034"
NSR:StopPlace:58943,58943,Breiland,59.51392,8.169004,,sann,,,,700,,Tokke,"4034"
NSR:StopPlace:58944,58944,Kvånsli,59.541038,8.044138,,sann,,,,700,,Tokke,"4034"
NSR:StopPlace:58945,58945,Rogdeli,59.562087,8.008296,,sann,,,,700,,Tokke,"4034"
NSR:StopPlace:59176,59176,Moen,59.481779,7.84886,,sann,,,,700,,Tokke,"4034"
NSR:StopPlace:59177,59177,Skreppedalen,59.503467,8.189519,,sann,,,,700,,Tokke,"4034"
NSR:StopPlace:60241,60241,Øyfjellvegen,59.500674,8.200228,,sann,,,,700,,Tokke,"4034"
NSR:StopPlace:60730,60730,Åheim,59.56492,8.18444,,sann,,,,700,,Tokke,"4034"
NSR:StopPlace:60819,60819,Skjelbreid,59.433588,8.173461,,sann,,,,700,,Tokke,"4034"
NSR:StopPlace:62149,62149,Teigen,59.425653,7.986658,,sann,,,,700,,Tokke,"4034"
NSR:StopPlace:59130,59130,Lårdal brygge,59.424107,8.187765,,sann,,,,1000,,Tokke,"4034"
NSR:StopPlace:59131,59131,Dalen brygge,59.444796,8.024732,,sann,,,,1000,,Tokke,"4034"
NSR:StopPlace:19531,19531,Polldalen,59.222309,9.506975,,sann,,,,700,,Skien,"4003"
NSR:StopPlace:19532,19532,Pollen øvre,59.218646,9.499867,,sann,,,,700,,Skien,"4003"
NSR:StopPlace:19562,19562,Gravli,59.250927,9.637015,,sann,,,,700,,Skien,"4003"
NSR:StopPlace:19565,19565,Raset,59.179502,9.621007,,sann,,,,700,,Skien,"4003"
NSR:StopPlace:19568,19568,Gravlisvingen,59.239677,9.642107,,sann,,,,700,,Skien,"4003"
NSR:StopPlace:19576,19576,Ravnåsen,59.219891,9.553899,,sann,,,,700,,Skien,"4003"
NSR:StopPlace:19586,19586,Rektor Ørns gate,59.214347,9.606224,,sann,,,,700,,Skien,"4003"
NSR:StopPlace:19589,19589,Rennesund,59.120736,9.449758,,sann,,,,700,,Skien,"4003"
NSR:StopPlace:19595,19595,Doksrød,59.25651,9.607473,,sann,,,,700,,Skien,"4003"
NSR:StopPlace:19596,19596,Riis søndre,59.166409,9.681437,,sann,,,,700,,Skien,"4003"
NSR:StopPlace:19606,19606,Doktorstykket,59.192795,9.627271,,sann,,,,700,,Skien,"4003"
NSR:StopPlace:19608,19608,Grinibakkane,59.229849,9.606438,,sann,,,,700,,Skien,"4003"
NSR:StopPlace:19609,19609,Rising,59.229081,9.599066,,sann,,,,700,,Skien,"4003"
NSR:StopPlace:19610,19610,Rising terrasse,59.221352,9.604186,,sann,,,,700,,Skien,"4003"
NSR:StopPlace:19611,19611,Dolhus bru,59.192636,9.440563,,sann,,,,700,,Skien,"4003"
NSR:StopPlace:19618,19618,Dolva,59.193054,9.452891,,sann,,,,700,,Skien,"4003"
NSR:StopPlace:19632,19632,Rognsbru,59.112263,9.433659,,sann,,,,700,,Skien,"4003"
NSR:StopPlace:19659,19659,Rugstad,59.184487,9.508705,,sann,,,,700,,Skien,"4003"
NSR:StopPlace:19676,19676,Ryggenkrysset,59.194396,9.684338,,sann,,,,700,,Skien,"4003"
NSR:StopPlace:19685,19685,Gråtenmoen,59.184103,9.616982,,sann,,,,700,,Skien,"4003"
NSR:StopPlace:19687,19687,Rådhusplassen,59.206782,9.610991,,sann,,,,700,,Skien,"4003"
NSR:StopPlace:19690,19690,Rødborge,59.162262,9.661018,,sann,,,,700,,Skien,"4003"
NSR:StopPlace:19692,19692,Rødmyr,59.168003,9.60058,,sann,,,,700,,Skien,"4003"
NSR:StopPlace:19696,19696,Rødmyrlia,59.173721,9.598725,,sann,,,,700,,Skien,"4003"
NSR:StopPlace:19697,19697,Rødmyrsvingen,59.171305,9.601085,,sann,,,,700,,Skien,"4003"
NSR:StopPlace:19699,19699,Rødmyrvegen Grep,59.176681,9.596933,,sann,,,,700,,Skien,"4003"
NSR:StopPlace:19721,19721,Grøtsund,59.20837,9.546029,,sann,,,,700,,Skien,"4003"
NSR:StopPlace:19725,19725,Gulsetkroken,59.212022,9.574215,,sann,,,,700,,Skien,"4003"
NSR:StopPlace:19728,19728,Røra gård,59.130725,9.547505,,sann,,,,700,,Skien,"4003"
NSR:StopPlace:19729,19729,Gulsetsenteret,59.215876,9.566769,,sann,,,,700,,Skien,"4003"
NSR:StopPlace:19748,19748,Røyvegen,59.225608,9.554509,,sann,,,,700,,Skien,"4003"
NSR:StopPlace:19749,19749,Gunnars veg,59.180535,9.639917,,sann,,,,700,,Skien,"4003"
NSR:StopPlace:19750,19750,Eiklund kryss,59.121682,9.380502,,sann,,,,700,,Skien,"4003"
NSR:StopPlace:19765,19765,Einarbakken,59.203542,9.563902,,sann,,,,700,,Skien,"4003"
NSR:StopPlace:19770,19770,Einaren,59.209784,9.561974,,sann,,,,700,,Skien,"4003"
NSR:StopPlace:19776,19776,Ekeli,59.162777,9.659549,,sann,,,,700,,Skien,"4003"
NSR:StopPlace:19781,19781,Sandbrekka,59.280631,9.56731,,sann,,,,700,,Skien,"4003"
NSR:StopPlace:19805,19805,Elstrøm,59.197021,9.583265,,sann,,,,700,,Skien,"4003"
NSR:StopPlace:19810,19810,Eltveitkrysset,59.158576,9.512821,,sann,,,,700,,Skien,"4003"
NSR:StopPlace:19823,19823,Sanni,59.160711,9.689898,,sann,,,,700,,Skien,"4003"
NSR:StopPlace:19824,19824,Gårda kryss,59.223431,9.637492,,sann,,,,700,,Skien,"4003"
NSR:StopPlace:19825,19825,Eriksrød,59.292094,9.567839,,sann,,,,700,,Skien,"4003"
NSR:StopPlace:19833,19833,Sannivegen,59.163017,9.685299,,sann,,,,700,,Skien,"4003"
NSR:StopPlace:19841,19841,Hagebyvegen,59.181713,9.608564,,sann,,,,700,,Skien,"4003"
NSR:StopPlace:19855,19855,Schneiders veg,59.216772,9.587287,,sann,,,,700,,Skien,"4003"
NSR:StopPlace:19860,19860,Hamsdokkvegen,59.130764,9.519774,,sann,,,,700,,Skien,"4003"
NSR:StopPlace:19863,19863,Hanes,59.188434,9.470647,,sann,,,,700,,Skien,"4003"
NSR:StopPlace:19871,19871,Semsmyrene,59.236737,9.609908,,sann,,,,700,,Skien,"4003"
NSR:StopPlace:19875,19875,Setre,59.238298,9.652035,,sann,,,,700,,Skien,"4003"
NSR:StopPlace:19882,19882,Falkåsen,59.21718,9.558003,,sann,,,,700,,Skien,"4003"
NSR:StopPlace:19941,19941,Haugsåsen,59.17302,9.648566,,sann,,,,700,,Skien,"4003"
NSR:StopPlace:19949,19949,Skauen,59.196593,9.633063,,sann,,,,700,,Skien,"4003"
NSR:StopPlace:19955,19955,Skauenvegen,59.194638,9.626193,,sann,,,,700,,Skien,"4003"
NSR:StopPlace:19965,19965,Finndal,59.156629,9.554208,,sann,,,,700,,Skien,"4003"
NSR:StopPlace:19967,19967,Skien havneterminal,59.128132,9.55923,,sann,,,,700,,Skien,"4003"
NSR:StopPlace:19972,19972,Geiteryggen,59.181431,9.571718,,sann,,,,700,,Skien,"4003"
NSR:StopPlace:19974,19974,Skien stasjon,59.218715,9.603063,,sann,,,,700,,Skien,"4003"
NSR:StopPlace:19979,19979,Slemdalsgata,59.213473,9.596112,,sann,,,,700,,Skien,"4003"
NSR:StopPlace:19984,19984,Skien Landmannstorget,59.209529,9.609729,,sann,,,,700,,Skien,"4003"
NSR:StopPlace:19992,19992,Fjellbrua,59.124354,9.363063,,sann,,,,700,,Skien,"4003"
NSR:StopPlace:19994,19994,Skifjell,59.202218,9.725659,,sann,,,,700,,Skien,"4003"
NSR:StopPlace:19998,19998,Fjelldalen,59.269326,9.605774,,sann,,,,700,,Skien,"4003"
NSR:StopPlace:20008,20008,Skjelbredstrand,59.183871,9.516775,,sann,,,,700,,Skien,"4003"
NSR:StopPlace:20023,20023,Skogmo vgs.,59.173839,9.621017,,sann,,,,700,,Skien,"4003"
NSR:StopPlace:20026,20026,Skogplassene,59.181247,9.604917,,sann,,,,700,,Skien,"4003"
NSR:StopPlace:20028,20028,Skogplassene bedehus,59.177808,9.605704,,sann,,,,700,,Skien,"4003"
NSR:StopPlace:20053,20053,Skotfoss,59.214929,9.525241,,sann,,,,700,,Skien,"4003"
NSR:StopPlace:20056,20056,Skotfoss frelsesarmeen,59.215068,9.530134,,sann,,,,700,,Skien,"4003"
NSR:StopPlace:20058,20058,Skotfoss skole,59.214005,9.527909,,sann,,,,700,,Skien,"4003"
NSR:StopPlace:20059,20059,Fjærejordet,59.185986,9.54947,,sann,,,,700,,Skien,"4003"
NSR:StopPlace:20060,20060,Skottekroken,59.220923,9.566753,,sann,,,,700,,Skien,"4003"
NSR:StopPlace:20062,20062,Fjærekilen,59.185972,9.491357,,sann,,,,700,,Skien,"4003"
NSR:StopPlace:20066,20066,Flakvarpkroken,59.124382,9.585382,,sann,,,,700,,Skien,"4003"
NSR:StopPlace:20069,20069,Flakvarplia,59.124518,9.594618,,sann,,,,700,,Skien,"4003"
NSR:StopPlace:20072,20072,Listefabrikken,59.19001,9.64036,,sann,,,,700,,Skien,"4003"
NSR:StopPlace:20123,20123,Herkules,59.196078,9.604622,,sann,,,,700,,Skien,"4003"
NSR:StopPlace:20133,20133,Lund,59.245104,9.602353,,sann,,,,700,,Skien,"4003"
NSR:StopPlace:20135,20135,Lunde,59.319066,9.335829,,sann,,,,700,,Skien,"4003"
NSR:StopPlace:20147,20147,Follaug,59.185707,9.644016,,sann,,,,700,,Skien,"4003"
NSR:StopPlace:20152,20152,Hestehagvegen,59.199073,9.629699,,sann,,,,700,,Skien,"4003"
NSR:StopPlace:20154,20154,Foss gård,59.263907,9.573053,,sann,,,,700,,Skien,"4003"
NSR:StopPlace:20166,20166,Lundedalen,59.207202,9.59866,,sann,,,,700,,Skien,"4003"
NSR:StopPlace:20176,20176,Lundsåsen,59.237026,9.626467,,sann,,,,700,,Skien,"4003"
NSR:StopPlace:20179,20179,Lundsåsen kryss,59.235944,9.626459,,sann,,,,700,,Skien,"4003"
NSR:StopPlace:20187,20187,Fossum,59.233096,9.580932,,sann,,,,700,,Skien,"4003"
NSR:StopPlace:20188,20188,Lyngbakkvegen,59.165685,9.606267,,sann,,,,700,,Skien,"4003"
NSR:StopPlace:20190,20190,Fossumvegen,59.237641,9.576513,,sann,,,,700,,Skien,"4003"
NSR:StopPlace:20198,20198,Fredheim,59.16651,9.671771,,sann,,,,700,,Skien,"4003"
NSR:StopPlace:20205,20205,Høgset,59.200232,9.662272,,sann,,,,700,,Skien,"4003"
NSR:StopPlace:20208,20208,Hogstad,59.2271,9.497025,,sann,,,,700,,Skien,"4003"
NSR:StopPlace:20226,20226,Frognerhagen kryss,59.211046,9.623052,,sann,,,,700,,Skien,"4003"
NSR:StopPlace:20229,20229,Frognerkrysset,59.212216,9.61605,,sann,,,,700,,Skien,"4003"
NSR:StopPlace:20237,20237,Solum kirke,59.170252,9.5661,,sann,,,,700,,Skien,"4003"
NSR:StopPlace:20239,20239,Holtanvegen kryss,59.169544,9.521697,,sann,,,,700,,Skien,"4003"
NSR:StopPlace:20240,20240,Maigullvegen,59.178831,9.610653,,sann,,,,700,,Skien,"4003"
NSR:StopPlace:20248,20248,Marumveien kryss,59.200527,9.40393,,sann,,,,700,,Skien,"4003"
NSR:StopPlace:20254,20254,Meen,59.172995,9.658068,,sann,,,,700,,Skien,"4003"
NSR:StopPlace:20261,20261,Frønesvegen,59.122345,9.385585,,sann,,,,700,,Skien,"4003"
NSR:StopPlace:20273,20273,Melum kirke,59.208105,9.42797,,sann,,,,700,,Skien,"4003"
NSR:StopPlace:20276,20276,Melum skole,59.206025,9.410412,,sann,,,,700,,Skien,"4003"
NSR:StopPlace:20281,20281,Furuheim,59.170768,9.649397,,sann,,,,700,,Skien,"4003"
NSR:StopPlace:20282,20282,Menstad,59.168185,9.64747,,sann,,,,700,,Skien,"4003"
NSR:StopPlace:20284,20284,Hoppestad,59.254364,9.565082,,sann,,,,700,,Skien,"4003"
NSR:StopPlace:20287,20287,Hoppestad nord,59.25844,9.563828,,sann,,,,700,,Skien,"4003"
NSR:StopPlace:20291,20291,Menstadbrua,59.175426,9.640294,,sann,,,,700,,Skien,"4003"
NSR:StopPlace:20295,20295,Furuvald,59.281882,9.544319,,sann,,,,700,,Skien,"4003"
NSR:StopPlace:20298,20298,Futehagen,59.146932,9.614528,,sann,,,,700,,Skien,"4003"
NSR:StopPlace:20305,20305,Løberg,59.202761,9.65755,,sann,,,,700,,Skien,"4003"
NSR:StopPlace:20307,20307,Fylkeshuset,59.214438,9.610183,,sann,,,,700,,Skien,"4003"
NSR:StopPlace:20313,20313,Hustvedt,59.191452,9.464148,,sann,,,,700,,Skien,"4003"
NSR:StopPlace:20323,20323,Gamle Kikutveg,59.250589,9.663426,,sann,,,,700,,Skien,"4003"
NSR:StopPlace:20340,20340,Gamlegrensa,59.218519,9.589537,,sann,,,,700,,Skien,"4003"
NSR:StopPlace:20343,20343,Gampedalen,59.202661,9.615922,,sann,,,,700,,Skien,"4003"
NSR:StopPlace:20346,20346,Garasjene,59.186673,9.632515,,sann,,,,700,,Skien,"4003"
NSR:StopPlace:20347,20347,Mo,59.300301,9.557515,,sann,,,,700,,Skien,"4003"
NSR:StopPlace:20366,20366,Høgset,59.178024,9.388617,,sann,,,,700,,Skien,"4003"
NSR:StopPlace:20370,20370,Moflata,59.192296,9.588325,,sann,,,,700,,Skien,"4003"
NSR:StopPlace:20375,20375,Moflata skole,59.187279,9.596177,,sann,,,,700,,Skien,"4003"
NSR:StopPlace:20387,20387,Høgås,59.262319,9.606059,,sann,,,,700,,Skien,"4003"
NSR:StopPlace:20399,20399,Geiteryggvegen,59.191975,9.563086,,sann,,,,700,,Skien,"4003"
NSR:StopPlace:20403,20403,Hørta,59.191285,9.714978,,sann,,,,700,,Skien,"4003"
NSR:StopPlace:20405,20405,Monrads gate,59.213007,9.61146,,sann,,,,700,,Skien,"4003"
NSR:StopPlace:20406,20406,Gimsøy,59.19267,9.609684,,sann,,,,700,,Skien,"4003"
NSR:StopPlace:20412,20412,Ingrids gate Gimsøy,59.196972,9.609179,,sann,,,,700,,Skien,"4003"
NSR:StopPlace:20415,20415,Gimsøy plass,59.196446,9.611045,,sann,,,,700,,Skien,"4003"
NSR:StopPlace:20420,20420,Gimsøy skole,59.193798,9.608075,,sann,,,,700,,Skien,"4003"
NSR:StopPlace:20421,20421,Høydalsvegen,59.118265,9.401101,,sann,,,,700,,Skien,"4003"
NSR:StopPlace:20423,20423,Gisholt,59.081224,9.393455,,sann,,,,700,,Skien,"4003"
NSR:StopPlace:20427,20427,Gislesjøvegen,59.096047,9.42289,,sann,,,,700,,Skien,"4003"
NSR:StopPlace:20439,20439,Ibsenhuset,59.2086,9.604702,,sann,,,,700,,Skien,"4003"
NSR:StopPlace:20441,20441,Gjerpen Misjonskirke,59.259557,9.573491,,sann,,,,700,,Skien,"4003"
NSR:StopPlace:20442,20442,Ilemoen,59.198184,9.43705,,sann,,,,700,,Skien,"4003"
NSR:StopPlace:20443,20443,Gjerpen kirke,59.224869,9.606814,,sann,,,,700,,Skien,"4003"
NSR:StopPlace:20444,20444,Ilenvegen,59.175337,9.645925,,sann,,,,700,,Skien,"4003"
NSR:StopPlace:20448,20448,Munkelia,59.190835,9.624,,sann,,,,700,,Skien,"4003"
NSR:StopPlace:20449,20449,Gjerpen ungdomsskole,59.224034,9.603712,,sann,,,,700,,Skien,"4003"
NSR:StopPlace:20451,20451,Gjerseter,59.07213,9.373125,,sann,,,,700,,Skien,"4003"
NSR:StopPlace:20465,20465,Myren,59.202714,9.587544,,sann,,,,700,,Skien,"4003"
NSR:StopPlace:20466,20466,Glenna,59.259021,9.590485,,sann,,,,700,,Skien,"4003"
NSR:StopPlace:20504,20504,Kreppa,59.236581,9.619103,,sann,,,,700,,Skien,"4003"
NSR:StopPlace:20513,20513,Adjunkt Arentz gate,59.21302,9.600849,,sann,,,,700,,Skien,"4003"
NSR:StopPlace:20531,20531,Krøssen,59.19158,9.410493,,sann,,,,700,,Skien,"4003"
NSR:StopPlace:20532,20532,Mæla,59.225107,9.589039,,sann,,,,700,,Skien,"4003"
NSR:StopPlace:20534,20534,Kubru,59.210904,9.417797,,sann,,,,700,,Skien,"4003"
NSR:StopPlace:20536,20536,Mæla skole,59.218061,9.58697,,sann,,,,700,,Skien,"4003"
NSR:StopPlace:20540,20540,Kulten,59.271188,9.56089,,sann,,,,700,,Skien,"4003"
NSR:StopPlace:20547,20547,Mørkegang,59.259791,9.607531,,sann,,,,700,,Skien,"4003"
NSR:StopPlace:20571,20571,Askedokka,59.192951,9.638119,,sann,,,,700,,Skien,"4003"
NSR:StopPlace:20584,20584,Nedre Frydenlund,59.149123,9.626003,,sann,,,,700,,Skien,"4003"
NSR:StopPlace:20587,20587,Nedre Maihaugen,59.223154,9.566122,,sann,,,,700,,Skien,"4003"
NSR:StopPlace:20590,20590,Nenset,59.164525,9.634192,,sann,,,,700,,Skien,"4003"
NSR:StopPlace:20597,20597,Augonsplassen,59.204786,9.585174,,sann,,,,700,,Skien,"4003"
NSR:StopPlace:20604,20604,Lammers gate,59.207707,9.623348,,sann,,,,700,,Skien,"4003"
NSR:StopPlace:20622,20622,Bakkane,59.193654,9.586468,,sann,,,,700,,Skien,"4003"
NSR:StopPlace:20642,20642,Ballestad,59.179567,9.650969,,sann,,,,700,,Skien,"4003"
NSR:StopPlace:20643,20643,Langerød,59.17475,9.703806,,sann,,,,700,,Skien,"4003"
NSR:StopPlace:20644,20644,Ballestadvegen,59.178768,9.642205,,sann,,,,700,,Skien,"4003"
NSR:StopPlace:20662,20662,Nisterud,59.301162,9.485105,,sann,,,,700,,Skien,"4003"
NSR:StopPlace:20663,20663,Skien fritidspark,59.187144,9.602535,,sann,,,,700,,Skien,"4003"
NSR:StopPlace:20667,20667,Langvenna,59.26043,9.561925,,sann,,,,700,,Skien,"4003"
NSR:StopPlace:20696,20696,Baugerød,59.246852,9.604748,,sann,,,,700,,Skien,"4003"
NSR:StopPlace:20704,20704,Leiremoen,59.182052,9.618721,,sann,,,,700,,Skien,"4003"
NSR:StopPlace:20716,20716,Lensmannsdalen,59.161955,9.634697,,sann,,,,700,,Skien,"4003"
NSR:StopPlace:20718,20718,Berganvegen,59.214562,9.407431,,sann,,,,700,,Skien,"4003"
NSR:StopPlace:20723,20723,Lerkevegen,59.221962,9.551651,,sann,,,,700,,Skien,"4003"
NSR:StopPlace:20746,20746,Lid,59.162897,9.701567,,sann,,,,700,,Skien,"4003"
NSR:StopPlace:20754,20754,Liegata,59.210574,9.603972,,sann,,,,700,,Skien,"4003"
NSR:StopPlace:20755,20755,Bergsland,59.217346,9.607031,,sann,,,,700,,Skien,"4003"
NSR:StopPlace:20764,20764,Betanien hospital,59.208996,9.595694,,sann,,,,700,,Skien,"4003"
NSR:StopPlace:20771,20771,Lillebru,59.20527,9.648562,,sann,,,,700,,Skien,"4003"
NSR:StopPlace:20788,20788,Limi,59.239752,9.590078,,sann,,,,700,,Skien,"4003"
NSR:StopPlace:20793,20793,Nyberglia,59.145922,9.617479,,sann,,,,700,,Skien,"4003"
NSR:StopPlace:20794,20794,Limi søndre,59.235518,9.592386,,sann,,,,700,,Skien,"4003"
NSR:StopPlace:20795,20795,Bjørbekk,59.169773,9.371932,,sann,,,,700,,Skien,"4003"
NSR:StopPlace:20796,20796,Limikollen,59.243677,9.58669,,sann,,,,700,,Skien,"4003"
NSR:StopPlace:20797,20797,Nygata,59.211157,9.61285,,sann,,,,700,,Skien,"4003"
NSR:StopPlace:20801,20801,Nygård,59.172372,9.695673,,sann,,,,700,,Skien,"4003"
NSR:StopPlace:20802,20802,Lindemanns gate,59.214042,9.587195,,sann,,,,700,,Skien,"4003"
NSR:StopPlace:20805,20805,Nyhus,59.167678,9.52102,,sann,,,,700,,Skien,"4003"
NSR:StopPlace:20808,20808,Nyhusvegen,59.214661,9.558253,,sann,,,,700,,Skien,"4003"
NSR:StopPlace:20809,20809,Bjørkelund,59.219594,9.512134,,sann,,,,700,,Skien,"4003"
NSR:StopPlace:20813,20813,Lindvik,59.210309,9.621404,,sann,,,,700,,Skien,"4003"
NSR:StopPlace:20834,20834,Jensejordet,59.106676,9.430459,,sann,,,,700,,Skien,"4003"
NSR:StopPlace:20835,20835,Bjørntvedtvegen,59.161503,9.605371,,sann,,,,700,,Skien,"4003"
NSR:StopPlace:20836,20836,Jernbanevegen,59.219103,9.605372,,sann,,,,700,,Skien,"4003"
NSR:StopPlace:20838,20838,Bliva,59.282064,9.526099,,sann,,,,700,,Skien,"4003"
NSR:StopPlace:20842,20842,Bloms Minde,59.203414,9.618686,,sann,,,,700,,Skien,"4003"
NSR:StopPlace:20843,20843,Johan Schaannings gate,59.184619,9.633354,,sann,,,,700,,Skien,"4003"
NSR:StopPlace:20844,20844,Blåbærlia,59.19838,9.6191,,sann,,,,700,,Skien,"4003"
NSR:StopPlace:20858,20858,Oddbakken,59.247124,9.663806,,sann,,,,700,,Skien,"4003"
NSR:StopPlace:20867,20867,Bolvik,59.124995,9.481905,,sann,,,,700,,Skien,"4003"
NSR:StopPlace:20869,20869,Jønnevall,59.271306,9.568533,,sann,,,,700,,Skien,"4003"
NSR:StopPlace:20872,20872,Jønnevallenga,59.269119,9.570037,,sann,,,,700,,Skien,"4003"
NSR:StopPlace:20882,20882,Olaf Ryes gate,59.189352,9.612507,,sann,,,,700,,Skien,"4003"
NSR:StopPlace:20885,20885,Borgestad,59.164885,9.649079,,sann,,,,700,,Skien,"4003"
NSR:StopPlace:20891,20891,Borgestad gård,59.161761,9.651739,,sann,,,,700,,Skien,"4003"
NSR:StopPlace:20907,20907,Omdal,59.228432,9.479281,,sann,,,,700,,Skien,"4003"
NSR:StopPlace:20910,20910,Kampekastet,59.205342,9.554224,,sann,,,,700,,Skien,"4003"
NSR:StopPlace:20913,20913,Kanalen,59.212942,9.522755,,sann,,,,700,,Skien,"4003"
NSR:StopPlace:20926,20926,Bratsberg,59.201685,9.626504,,sann,,,,700,,Skien,"4003"
NSR:StopPlace:20929,20929,Bratsberg kryss,59.203049,9.626271,,sann,,,,700,,Skien,"4003"
NSR:StopPlace:20930,20930,Kikut,59.244203,9.660982,,sann,,,,700,,Skien,"4003"
NSR:StopPlace:20932,20932,Bratsbergkleiva,59.206109,9.616842,,sann,,,,700,,Skien,"4003"
NSR:StopPlace:20937,20937,Kilebygda skole,59.106398,9.432063,,sann,,,,700,,Skien,"4003"
NSR:StopPlace:20950,20950,Breidablikkvegen,59.160302,9.662902,,sann,,,,700,,Skien,"4003"
NSR:StopPlace:20953,20953,Oterholt,59.279595,9.56432,,sann,,,,700,,Skien,"4003"
NSR:StopPlace:20958,20958,Brekka,59.192098,9.559243,,sann,,,,700,,Skien,"4003"
NSR:StopPlace:20963,20963,Kirkeveien,59.168727,9.634411,,sann,,,,700,,Skien,"4003"
NSR:StopPlace:20965,20965,P.A. Munchs Gate,59.214448,9.607316,,sann,,,,700,,Skien,"4003"
NSR:StopPlace:20969,20969,Brekkatoppen,59.190994,9.56215,,sann,,,,700,,Skien,"4003"
NSR:StopPlace:20975,20975,Brekkeparken,59.208827,9.61476,,sann,,,,700,,Skien,"4003"
NSR:StopPlace:20977,20977,Petersborg,59.230403,9.583708,,sann,,,,700,,Skien,"4003"
NSR:StopPlace:20979,20979,Kittilsrød,59.241496,9.659206,,sann,,,,700,,Skien,"4003"
NSR:StopPlace:20985,20985,Petersplassen,59.213932,9.5707,,sann,,,,700,,Skien,"4003"
NSR:StopPlace:21006,21006,Kjær,59.172194,9.698725,,sann,,,,700,,Skien,"4003"
NSR:StopPlace:21008,21008,Tufte,59.25338,9.578618,,sann,,,,700,,Skien,"4003"
NSR:StopPlace:21014,21014,Brudalsbekken,59.185041,9.544413,,sann,,,,700,,Skien,"4003"
NSR:StopPlace:21016,21016,Tuftebygget,59.186072,9.615415,,sann,,,,700,,Skien,"4003"
NSR:StopPlace:21022,21022,Kjørbekk,59.174148,9.615207,,sann,,,,700,,Skien,"4003"
NSR:StopPlace:21023,21023,Tufteputten,59.247405,9.584544,,sann,,,,700,,Skien,"4003"
NSR:StopPlace:21026,21026,Kjørbekkdalen,59.172922,9.633105,,sann,,,,700,,Skien,"4003"
NSR:StopPlace:21027,21027,Tute,59.187654,9.49977,,sann,,,,700,,Skien,"4003"
NSR:StopPlace:21031,21031,Kjørbekkhøgda,59.176357,9.626337,,sann,,,,700,,Skien,"4003"
NSR:StopPlace:21036,21036,Kjørbekkhøgda skole,59.178093,9.616956,,sann,,,,700,,Skien,"4003"
NSR:StopPlace:21038,21038,Kjørbekksvingen,59.17408,9.629852,,sann,,,,700,,Skien,"4003"
NSR:StopPlace:21039,21039,Bruset,59.222662,9.398881,,sann,,,,700,,Skien,"4003"
NSR:StopPlace:21043,21043,Kjørbekkvegen,59.176949,9.612564,,sann,,,,700,,Skien,"4003"
NSR:StopPlace:21074,21074,Buer,59.168211,9.663688,,sann,,,,700,,Skien,"4003"
NSR:StopPlace:21080,21080,Buer planteskole,59.167802,9.664473,,sann,,,,700,,Skien,"4003"
NSR:StopPlace:21083,21083,Buer skole,59.16838,9.66149,,sann,,,,700,,Skien,"4003"
NSR:StopPlace:21086,21086,Buerjordet,59.166612,9.667195,,sann,,,,700,,Skien,"4003"
NSR:StopPlace:21087,21087,Klosterjordene,59.19545,9.60139,,sann,,,,700,,Skien,"4003"
NSR:StopPlace:21091,21091,Klosterøya,59.199283,9.610612,,sann,,,,700,,Skien,"4003"
NSR:StopPlace:21099,21099,Klovholt bedehus,59.185242,9.525844,,sann,,,,700,,Skien,"4003"
NSR:StopPlace:21111,21111,Klyvesenteret,59.147376,9.62154,,sann,,,,700,,Skien,"4003"
NSR:StopPlace:21113,21113,Klyvetoppen,59.14948,9.610069,,sann,,,,700,,Skien,"4003"
NSR:StopPlace:21137,21137,Kongerødvegen,59.150478,9.618348,,sann,,,,700,,Skien,"4003"
NSR:StopPlace:21142,21142,Kongstvedt,59.089081,9.425776,,sann,,,,700,,Skien,"4003"
NSR:StopPlace:21172,21172,Bøgrenda,59.259399,9.549493,,sann,,,,700,,Skien,"4003"
NSR:StopPlace:21177,21177,Bøle,59.180459,9.632617,,sann,,,,700,,Skien,"4003"
NSR:StopPlace:21182,21182,Bølehøgda,59.181832,9.636829,,sann,,,,700,,Skien,"4003"
NSR:StopPlace:21186,21186,Uglevegen,59.224006,9.550071,,sann,,,,700,,Skien,"4003"
NSR:StopPlace:21188,21188,Bølesvingen,59.177913,9.636883,,sann,,,,700,,Skien,"4003"
NSR:StopPlace:21211,21211,Suttervikvegen,59.202281,9.53191,,sann,,,,700,,Skien,"4003"
NSR:StopPlace:21217,21217,Svanen skole,59.130805,9.517459,,sann,,,,700,,Skien,"4003"
NSR:StopPlace:21219,21219,Svanviksvingen,59.131839,9.532147,,sann,,,,700,,Skien,"4003"
NSR:StopPlace:21254,21254,Dalsbygda,59.23513,9.47317,,sann,,,,700,,Skien,"4003"
NSR:StopPlace:21256,21256,Dalsbygdaveien,59.231174,9.491218,,sann,,,,700,,Skien,"4003"
NSR:StopPlace:21272,21272,Sykehuset Skien hovedinngang,59.192348,9.594994,,sann,,,,700,,Skien,"4003"
NSR:StopPlace:21280,21280,Vadrette,59.202684,9.576626,,sann,,,,700,,Skien,"4003"
NSR:StopPlace:21285,21285,Vadretteskogen,59.201733,9.581086,,sann,,,,700,,Skien,"4003"
NSR:StopPlace:21298,21298,Valebø,59.314424,9.330207,,sann,,,,700,,Skien,"4003"
NSR:StopPlace:21301,21301,Sønstvedt,59.086441,9.423088,,sann,,,,700,,Skien,"4003"
NSR:StopPlace:21304,21304,Sørbøveien kryss,59.216469,9.642398,,sann,,,,700,,Skien,"4003"
NSR:StopPlace:21306,21306,Søtvedt,59.145578,9.534655,,sann,,,,700,,Skien,"4003"
NSR:StopPlace:21332,21332,Smia,59.244879,9.570043,,sann,,,,700,,Skien,"4003"
NSR:StopPlace:21347,21347,Sneltvedt skole,59.219829,9.639771,,sann,,,,700,,Skien,"4003"
NSR:StopPlace:21350,21350,Sneltvedtlia,59.218152,9.634699,,sann,,,,700,,Skien,"4003"
NSR:StopPlace:21352,21352,Frogner Ring,59.214635,9.623933,,sann,,,,700,,Skien,"4003"
NSR:StopPlace:21360,21360,Tilja,59.19353,9.622242,,sann,,,,700,,Skien,"4003"
NSR:StopPlace:21395,21395,Varpet,59.194387,9.574183,,sann,,,,700,,Skien,"4003"
NSR:StopPlace:21397,21397,Tiurvegen,59.225854,9.558038,,sann,,,,700,,Skien,"4003"
NSR:StopPlace:21408,21408,Sommerfryd,59.231911,9.596412,,sann,,,,700,,Skien,"4003"
NSR:StopPlace:21426,21426,St. Hans gate,59.200318,9.620632,,sann,,,,700,,Skien,"4003"
NSR:StopPlace:21437,21437,Vatner Ring,59.205432,9.591328,,sann,,,,700,,Skien,"4003"
NSR:StopPlace:21439,21439,Tollnes,59.157636,9.636513,,sann,,,,700,,Skien,"4003"
NSR:StopPlace:21448,21448,Tomtegata sør,59.197709,9.623428,,sann,,,,700,,Skien,"4003"
NSR:StopPlace:21449,21449,Statens Hus,59.21808,9.596569,,sann,,,,700,,Skien,"4003"
NSR:StopPlace:21453,21453,Toras hytte,59.237254,9.634008,,sann,,,,700,,Skien,"4003"
NSR:StopPlace:21464,21464,Stavdal,59.16666,9.389949,,sann,,,,700,,Skien,"4003"
NSR:StopPlace:21465,21465,Stavdalkrysset,59.174764,9.38278,,sann,,,,700,,Skien,"4003"
NSR:StopPlace:21496,21496,Venstøp skole,59.247955,9.57151,,sann,,,,700,,Skien,"4003"
NSR:StopPlace:21502,21502,Stevneplassen,59.212404,9.590459,,sann,,,,700,,Skien,"4003"
NSR:StopPlace:21511,21511,Stigeråsen,59.217673,9.568595,,sann,,,,700,,Skien,"4003"
NSR:StopPlace:21517,21517,Vindalsåsen,59.182716,9.582918,,sann,,,,700,,Skien,"4003"
NSR:StopPlace:21539,21539,Storm,59.205712,9.624681,,sann,,,,700,,Skien,"4003"
NSR:StopPlace:21551,21551,Voll,59.127747,9.508967,,sann,,,,700,,Skien,"4003"
NSR:StopPlace:21590,21590,Strømdal,59.210139,9.577601,,sann,,,,700,,Skien,"4003"
NSR:StopPlace:21593,21593,Strømdaljordet,59.207046,9.566762,,sann,,,,700,,Skien,"4003"
NSR:StopPlace:21600,21600,Stubbesletta nord,59.191076,9.628295,,sann,,,,700,,Skien,"4003"
NSR:StopPlace:21603,21603,Stubbesletta sør,59.18847,9.630645,,sann,,,,700,,Skien,"4003"
NSR:StopPlace:21605,21605,Stulen,59.304407,9.526661,,sann,,,,700,,Skien,"4003"
NSR:StopPlace:21625,21625,Ytre Valebø,59.294754,9.388631,,sann,,,,700,,Skien,"4003"
NSR:StopPlace:21633,21633,Åfoss,59.194964,9.538783,,sann,,,,700,,Skien,"4003"
NSR:StopPlace:21635,21635,Åfossjordet,59.198281,9.536905,,sann,,,,700,,Skien,"4003"
NSR:StopPlace:21636,21636,Åfossmyra,59.203932,9.532193,,sann,,,,700,,Skien,"4003"
NSR:StopPlace:21646,21646,Åmotvegen,59.238872,9.636933,,sann,,,,700,,Skien,"4003"
NSR:StopPlace:21660,21660,Ås,59.266796,9.555688,,sann,,,,700,,Skien,"4003"
NSR:StopPlace:21665,21665,Åsen,59.192898,9.542314,,sann,,,,700,,Skien,"4003"
NSR:StopPlace:21670,21670,Åshammeren,59.272153,9.564566,,sann,,,,700,,Skien,"4003"
NSR:StopPlace:21677,21677,Åsterød,59.195883,9.721608,,sann,,,,700,,Skien,"4003"
NSR:StopPlace:21680,21680,Ødegård,59.18374,9.706201,,sann,,,,700,,Skien,"4003"
NSR:StopPlace:21681,21681,Ødegårdens salmakeri,59.128494,9.341705,,sann,,,,700,,Skien,"4003"
NSR:StopPlace:21699,21699,Øvre Maihaugen,59.224944,9.562764,,sann,,,,700,,Skien,"4003"
NSR:StopPlace:59322,59322,Jarseng,59.17263,9.725776,,sann,,,,700,,Skien,"4003"
NSR:StopPlace:59888,59888,Setervegen,59.229667,9.642818,,sann,,,,700,,Skien,"4003"
NSR:StopPlace:59908,59908,Kastet,59.276833,9.563543,,sann,,,,700,,Skien,"4003"
NSR:StopPlace:60958,60958,Erikstad,59.183718,9.394699,,sann,,,,700,,Skien,"4003"
NSR:StopPlace:61218,61218,Skjelbredstrand kryss,59.184305,9.519267,,sann,,,,700,,Skien,"4003"
NSR:StopPlace:61494,61494,Skauen kristelige skole,59.194766,9.630893,,sann,,,,700,,Skien,"4003"
NSR:StopPlace:62003,62003,Sem,59.237653,9.61548,,sann,,,,700,,Skien,"4003"
NSR:StopPlace:62045,62045,Setrekollen,59.240077,9.657226,,sann,,,,700,,Skien,"4003"
NSR:StopPlace:62595,62595,Løveidvegen,59.215549,9.503174,,sann,,,,700,,Skien,"4003"
NSR:StopPlace:63318,63318,Berberg,59.250248,9.591486,,sann,,,,700,,Skien,"4003"
NSR:StopPlace:63489,63489,Rødmyrsvingen Grep,59.176588,9.598942,,sann,,,,700,,Skien,"4003"
NSR:StopPlace:63545,63545,Kverndalen Kongens gate,59.212089,9.607705,,sann,,,,700,,Skien,"4003"
NSR:StopPlace:63642,63642,Skistredet Ibsenparken,59.208479,9.60796,,sann,,,,700,,Skien,"4003"
NSR:StopPlace:63767,63767,Høyanlia,59.192951,9.582119,,sann,,,,700,,Skien,"4003"
NSR:StopPlace:64133,64133,Fossumhaugen,59.238172,9.571956,,sann,,,,700,,Skien,"4003"
NSR:StopPlace:20223,20223,Løveid sluse,59.211573,9.522338,,sann,,,,1000,,Skien,"4003"
NSR:StopPlace:59360,59360,Skien Hjellebrygga,59.204636,9.606892,,sann,,,,1000,,Skien,"4003"
NSR:StopPlace:60420,60420,Aalls gate,59.222613,9.597913,,sann,,,sann,700,,Skien,"4003"
NSR:StopPlace:21222,21222,Svanvik kryss,59.131323,9.526241,i Svanvikvegen,sann,,,,700,,Skien,"4003"
NSR:StopPlace:21264,21264,Sykehuset Skien Ulefossvegen,59.194421,9.596079,Ved rundkjøringen til psyk.,sann,,,,700,,Skien,"4003"
NSR:StopPlace:61166,61166,Svanvik kryss,59.132281,9.523781,i Voldsvegen,sann,,,,700,,Skien,"4003"
NSR:StopPlace:19638,19638,Roholt,59.323007,8.456289,,sann,,,,700,,Kviteseid,"4028"
NSR:StopPlace:19649,19649,Grova,59.43154,8.48362,,sann,,,,700,,Kviteseid,"4028"
NSR:StopPlace:19913,19913,Sinnes vestre,59.32973,8.373778,,sann,,,,700,,Kviteseid,"4028"
NSR:StopPlace:19968,19968,Haukom,59.392935,8.509237,,sann,,,,700,,Kviteseid,"4028"
NSR:StopPlace:19969,19969,Finndreng,59.262743,8.521429,,sann,,,,700,,Kviteseid,"4028"
NSR:StopPlace:20003,20003,Heggtveit,59.447437,8.571842,,sann,,,,700,,Kviteseid,"4028"
NSR:StopPlace:20095,20095,Flatland,59.354166,8.299551,,sann,,,,700,,Kviteseid,"4028"
NSR:StopPlace:20110,20110,Hemmestveit,59.454,8.437978,,sann,,,,700,,Kviteseid,"4028"
NSR:StopPlace:20132,20132,Herregården,59.335288,8.350843,,sann,,,,700,,Kviteseid,"4028"
NSR:StopPlace:20156,20156,Hesteskodiket,59.444095,8.540537,,sann,,,,700,,Kviteseid,"4028"
NSR:StopPlace:20220,20220,Lønnegraf,59.313528,8.510055,,sann,,,,700,,Kviteseid,"4028"
NSR:StopPlace:20224,20224,Holtan,59.417324,8.475351,,sann,,,,700,,Kviteseid,"4028"
NSR:StopPlace:20235,20235,Løyne,59.276069,8.523843,,sann,,,,700,,Kviteseid,"4028"
NSR:StopPlace:20330,20330,Midtsund,59.3983,8.499769,,sann,,,,700,,Kviteseid,"4028"
NSR:StopPlace:20362,20362,Høgland,59.354914,8.207453,,sann,,,,700,,Kviteseid,"4028"
NSR:StopPlace:20364,20364,Moen Dalanvegen,59.45126,8.324568,,sann,,,,700,,Kviteseid,"4028"
NSR:StopPlace:20414,20414,Morgedal sentrum,59.477076,8.418554,,sann,,,,700,,Kviteseid,"4028"
NSR:StopPlace:20419,20419,Morgedal,59.474314,8.4207,,sann,,,,700,,Kviteseid,"4028"
NSR:StopPlace:20422,20422,Morgedal aust,59.469401,8.43029,,sann,,,,700,,Kviteseid,"4028"
NSR:StopPlace:20425,20425,Morgedal vest,59.479973,8.386078,,sann,,,,700,,Kviteseid,"4028"
NSR:StopPlace:20454,20454,Gjersund,59.462511,8.433219,,sann,,,,700,,Kviteseid,"4028"
NSR:StopPlace:20555,20555,Kviteseid bygdetun,59.355469,8.520238,,sann,,,,700,,Kviteseid,"4028"
NSR:StopPlace:20557,20557,Kviteseid sentrum,59.401573,8.489559,,sann,,,,700,,Kviteseid,"4028"
NSR:StopPlace:20559,20559,Kviteseid skule,59.409506,8.474633,,sann,,,,700,,Kviteseid,"4028"
NSR:StopPlace:20564,20564,Kvitsund,59.382762,8.520708,,sann,,,,700,,Kviteseid,"4028"
NSR:StopPlace:20615,20615,Landsverk,59.449722,8.362634,,sann,,,,700,,Kviteseid,"4028"
NSR:StopPlace:20725,20725,Omlidvegen,59.478272,8.373867,,sann,,,,700,,Kviteseid,"4028"
NSR:StopPlace:20734,20734,Nordvik,59.354707,8.242924,,sann,,,,700,,Kviteseid,"4028"
NSR:StopPlace:20840,20840,Nørsterud kryss,59.424569,8.442132,,sann,,,,700,,Kviteseid,"4028"
NSR:StopPlace:21028,21028,Brunkeberg,59.439012,8.493951,,sann,,,,700,,Kviteseid,"4028"
NSR:StopPlace:21030,21030,Brunkeberg E134,59.442104,8.503053,,sann,,,,700,,Kviteseid,"4028"
NSR:StopPlace:21034,21034,Brunkeberg kyrkje,59.434855,8.483331,,sann,,,,700,,Kviteseid,"4028"
NSR:StopPlace:21035,21035,Brunkeberg vest,59.438424,8.473223,,sann,,,,700,,Kviteseid,"4028"
NSR:StopPlace:21114,21114,Tveitgrend,59.405657,8.435931,,sann,,,,700,,Kviteseid,"4028"
NSR:StopPlace:21187,21187,Sundet,59.328165,8.402912,,sann,,,,700,,Kviteseid,"4028"
NSR:StopPlace:21195,21195,Sundvollen,59.356053,8.229667,,sann,,,,700,,Kviteseid,"4028"
NSR:StopPlace:21318,21318,Slokviki,59.300026,8.52251,,sann,,,,700,,Kviteseid,"4028"
NSR:StopPlace:21438,21438,Stallane,59.309202,8.516806,,sann,,,,700,,Kviteseid,"4028"
NSR:StopPlace:21475,21475,Steane,59.280966,8.527275,,sann,,,,700,,Kviteseid,"4028"
NSR:StopPlace:21546,21546,Straand,59.324392,8.495439,,sann,,,,700,,Kviteseid,"4028"
NSR:StopPlace:21566,21566,Vrådal kirke,59.327622,8.41667,,sann,,,,700,,Kviteseid,"4028"
NSR:StopPlace:21569,21569,Veting,59.442039,8.522707,,sann,,,,700,,Kviteseid,"4028"
NSR:StopPlace:21570,21570,Vrådal sentrum,59.326012,8.484803,,sann,,,,700,,Kviteseid,"4028"
NSR:StopPlace:21573,21573,Vrådal skisenter kryss,59.32369,8.434502,,sann,,,,700,,Kviteseid,"4028"
NSR:StopPlace:21576,21576,Vråliosen,59.363645,8.174239,,sann,,,,700,,Kviteseid,"4028"
NSR:StopPlace:21631,21631,Åbø Dalanvegen,59.48411,8.307303,,sann,,,,700,,Kviteseid,"4028"
NSR:StopPlace:21655,21655,Årviki,59.357189,8.198048,,sann,,,,700,,Kviteseid,"4028"
NSR:StopPlace:21668,21668,Heistad Åsgrend,59.438554,8.597273,,sann,,,,700,,Kviteseid,"4028"
NSR:StopPlace:21669,21669,Åsgrend kryss,59.447232,8.562177,,sann,,,,700,,Kviteseid,"4028"
NSR:StopPlace:58572,58572,Kviteseid kommunehus,59.40181,8.493792,,sann,,,,700,,Kviteseid,"4028"
NSR:StopPlace:58711,58711,Tveitgrend kryss,59.395633,8.4601,,sann,,,,700,,Kviteseid,"4028"
NSR:StopPlace:60467,60467,Straumsnesvegen,59.322142,8.469359,,sann,,,,700,,Kviteseid,"4028"
NSR:StopPlace:60823,60823,Sinnes,59.332251,8.390543,,sann,,,,700,,Kviteseid,"4028"
NSR:StopPlace:60881,60881,Mogan,59.457397,8.304324,,sann,,,,700,,Kviteseid,"4028"
NSR:StopPlace:61284,61284,Vrådal rutebilstasjon,59.328255,8.492877,,sann,,,,700,,Kviteseid,"4028"
NSR:StopPlace:61414,61414,Sundkil bru,59.375504,8.53127,,sann,,,,700,,Kviteseid,"4028"
NSR:StopPlace:61619,61619,Sorgenfri,59.368372,8.529331,,sann,,,,700,,Kviteseid,"4028"
NSR:StopPlace:62134,62134,Hovdekleiv kryss,59.432616,8.419977,,sann,,,,700,,Kviteseid,"4028"
NSR:StopPlace:62148,62148,Skreosen,59.354572,8.152148,,sann,,,,700,,Kviteseid,"4028"
NSR:StopPlace:62859,62859,Kleivdal,59.388438,8.458338,,sann,,,,700,,Kviteseid,"4028"
NSR:StopPlace:62887,62887,Ramskeid,59.449097,8.562255,,sann,,,,700,,Kviteseid,"4028"
NSR:StopPlace:63476,63476,Meinstad,59.443319,8.53447,,sann,,,,700,,Kviteseid,"4028"
NSR:StopPlace:20052,20052,Fjågesund brygge,59.304391,8.700979,,sann,,,,1000,,Kviteseid,"4028"
NSR:StopPlace:59128,59128,Spjotsodd brygge,59.36321,8.525165,,sann,,,,1000,,Kviteseid,"4028"
NSR:StopPlace:19647,19647,Rosskjenn,59.038496,8.667849,,sann,,,,700,,Nissedal,"4030"
NSR:StopPlace:19790,19790,Ekra,58.920113,8.536932,,sann,,,,700,,Nissedal,"4030"
NSR:StopPlace:19912,19912,Felekjenn,59.043134,8.691889,,sann,,,,700,,Nissedal,"4030"
NSR:StopPlace:19916,19916,Felle,58.90363,8.743937,,sann,,,,700,,Nissedal,"4030"
NSR:StopPlace:19929,19929,Haugsjåsund,58.944224,8.505489,,sann,,,,700,,Nissedal,"4030"
NSR:StopPlace:19933,19933,Haugstøl,58.894841,8.694682,,sann,,,,700,,Nissedal,"4030"
NSR:StopPlace:19959,19959,Skeimo,59.176492,8.506017,,sann,,,,700,,Nissedal,"4030"
NSR:StopPlace:19989,19989,Fjalestad,59.160503,8.395392,,sann,,,,700,,Nissedal,"4030"
NSR:StopPlace:20020,20020,Heimdal,59.002865,8.573756,,sann,,,,700,,Nissedal,"4030"
NSR:StopPlace:20027,20027,Heimdalskrysset,59.004857,8.567747,,sann,,,,700,,Nissedal,"4030"
NSR:StopPlace:20034,20034,Heimdalsvegen,59.003882,8.540263,,sann,,,,700,,Nissedal,"4030"
NSR:StopPlace:20039,20039,Fjone kryss,59.180177,8.50806,,sann,,,,700,,Nissedal,"4030"
NSR:StopPlace:20043,20043,Fjone landhandel,59.154103,8.45211,,sann,,,,700,,Nissedal,"4030"
NSR:StopPlace:20046,20046,Fjone skule,59.158714,8.455977,,sann,,,,700,,Nissedal,"4030"
NSR:StopPlace:20109,20109,Lovika,59.119304,8.51956,,sann,,,,700,,Nissedal,"4030"
NSR:StopPlace:20267,20267,Fugleli,59.02425,8.622804,,sann,,,,700,,Nissedal,"4030"
NSR:StopPlace:20271,20271,Funnemark,59.245725,8.516078,,sann,,,,700,,Nissedal,"4030"
NSR:StopPlace:20326,20326,Gamle Meinstad,59.14761,8.512642,,sann,,,,700,,Nissedal,"4030"
NSR:StopPlace:20327,20327,Midtstrand,59.088591,8.53731,,sann,,,,700,,Nissedal,"4030"
NSR:StopPlace:20357,20357,Høgefoss,58.952935,8.511668,,sann,,,,700,,Nissedal,"4030"
NSR:StopPlace:20365,20365,Gaukås,58.925673,8.533255,,sann,,,,700,,Nissedal,"4030"
NSR:StopPlace:20462,20462,Myrane,59.008595,8.539934,,sann,,,,700,,Nissedal,"4030"
NSR:StopPlace:20573,20573,Naurak,59.051727,8.463926,,sann,,,,700,,Nissedal,"4030"
NSR:StopPlace:20599,20599,Kåssletta,59.026848,8.518826,,sann,,,,700,,Nissedal,"4030"
NSR:StopPlace:20601,20601,Nes,59.123866,8.509823,,sann,,,,700,,Nissedal,"4030"
NSR:StopPlace:20652,20652,Nissedal kyrkje,59.161911,8.503538,,sann,,,,700,,Nissedal,"4030"
NSR:StopPlace:20657,20657,Nissedal sentrum,59.165072,8.501178,,sann,,,,700,,Nissedal,"4030"
NSR:StopPlace:20668,20668,Nobbesundbrua,58.877665,8.653418,,sann,,,,700,,Nissedal,"4030"
NSR:StopPlace:20706,20706,Nordbygdvegen,59.193731,8.513084,,sann,,,,700,,Nissedal,"4030"
NSR:StopPlace:20729,20729,Moen,59.136054,8.45822,,sann,,,,700,,Nissedal,"4030"
NSR:StopPlace:20790,20790,Bjønntjenn,59.032769,8.643834,,sann,,,,700,,Nissedal,"4030"
NSR:StopPlace:20792,20792,Bjønåsmyra,59.01569,8.603751,,sann,,,,700,,Nissedal,"4030"
NSR:StopPlace:20942,20942,Kilen,59.215973,8.49605,,sann,,,,700,,Nissedal,"4030"
NSR:StopPlace:21056,21056,Tveit skule,59.025941,8.520547,,sann,,,,700,,Nissedal,"4030"
NSR:StopPlace:21140,21140,Treungen sentrum,59.019712,8.522169,,sann,,,,700,,Nissedal,"4030"
NSR:StopPlace:21248,21248,Syftestad,59.156067,8.506355,,sann,,,,700,,Nissedal,"4030"
NSR:StopPlace:21407,21407,Tjønnefoss kryss,58.975017,8.522537,,sann,,,,700,,Nissedal,"4030"
NSR:StopPlace:21484,21484,Treungen kyrkje,59.007645,8.559988,,sann,,,,700,,Nissedal,"4030"
NSR:StopPlace:21492,21492,Trontveit,59.094676,8.486622,,sann,,,,700,,Nissedal,"4030"
NSR:StopPlace:21497,21497,Stenufskleiva,59.022481,8.518746,,sann,,,,700,,Nissedal,"4030"
NSR:StopPlace:21557,21557,Strandrak,59.067998,8.520429,,sann,,,,700,,Nissedal,"4030"
NSR:StopPlace:21613,21613,Vik Fjone,59.118623,8.471927,,sann,,,,700,,Nissedal,"4030"
NSR:StopPlace:21617,21617,Vikbukta,59.055264,8.512124,,sann,,,,700,,Nissedal,"4030"
NSR:StopPlace:21648,21648,Årak,59.03859,8.504416,,sann,,,,700,,Nissedal,"4030"
NSR:StopPlace:58427,58427,Skåli,58.900944,8.778524,,sann,,,,700,,Nissedal,"4030"
NSR:StopPlace:58428,58428,Eikeland,58.916165,8.760679,,sann,,,,700,,Nissedal,"4030"
NSR:StopPlace:58605,58605,Fjonevegen kryss,59.016524,8.526906,,sann,,,,700,,Nissedal,"4030"
NSR:StopPlace:58607,58607,Kyrkjebygda oppvekstsenter,59.166694,8.502115,,sann,,,,700,,Nissedal,"4030"
NSR:StopPlace:59179,59179,Sandvik,59.113627,8.472762,,sann,,,,700,,Nissedal,"4030"
NSR:StopPlace:59266,59266,Sagvegen,59.015395,8.523516,,sann,,,,700,,Nissedal,"4030"
NSR:StopPlace:59430,59430,Nigard kryss,59.160955,8.46112,,sann,,,,700,,Nissedal,"4030"
NSR:StopPlace:60498,60498,Lauvdalen,59.01171,8.53592,,sann,,,,700,,Nissedal,"4030"
NSR:StopPlace:61907,61907,Homme,59.013528,8.549998,,sann,,,,700,,Nissedal,"4030"
NSR:StopPlace:62150,62150,Raunes,59.10479,8.487,,sann,,,,700,,Nissedal,"4030"
NSR:StopPlace:62592,62592,Nordbygdi,59.198452,8.512063,,sann,,,,700,,Nissedal,"4030"
NSR:StopPlace:62964,62964,Grimstveitvegen,59.16039,8.535226,,sann,,,,700,,Nissedal,"4030"
NSR:StopPlace:6501,6501,Tveitanevegen,59.197223,8.518243,,sann,,,,700,,Nissedal,"4030"
NSR:StopPlace:19530,19530,Dammane,59.016102,9.725737,,sann,,,,700,,Bamble,"4012"
NSR:StopPlace:19554,19554,Rakkestad,58.968135,9.634624,,sann,,,,700,,Bamble,"4012"
NSR:StopPlace:19594,19594,Riis,59.01487,9.673606,,sann,,,,700,,Bamble,"4012"
NSR:StopPlace:19600,19600,Doktorodden,59.033222,9.7173,,sann,,,,700,,Bamble,"4012"
NSR:StopPlace:19604,19604,Ringsjø,58.952413,9.538476,,sann,,,,700,,Bamble,"4012"
NSR:StopPlace:19621,19621,Gromstadsvingen,58.953927,9.452727,,sann,,,,700,,Bamble,"4012"
NSR:StopPlace:19660,19660,Rugtvedt E18,59.036618,9.677158,,sann,,,,700,,Bamble,"4012"
NSR:StopPlace:19663,19663,Rugtvedtmyra sør,59.03968,9.675329,,sann,,,,700,,Bamble,"4012"
NSR:StopPlace:19664,19664,Rugtvedt skole,59.040011,9.673945,,sann,,,,700,,Bamble,"4012"
NSR:StopPlace:19665,19665,Rugtvedtmyra,59.040756,9.674433,,sann,,,,700,,Bamble,"4012"
NSR:StopPlace:19679,19679,Dørdal,58.963685,9.478594,,sann,,,,700,,Bamble,"4012"
NSR:StopPlace:19706,19706,Rønholt,58.970994,9.57059,,sann,,,,700,,Bamble,"4012"
NSR:StopPlace:19707,19707,Rønholt skole,58.97312,9.572016,,sann,,,,700,,Bamble,"4012"
NSR:StopPlace:19733,19733,Rørholt gamle skole,59.00262,9.388292,,sann,,,,700,,Bamble,"4012"
NSR:StopPlace:19734,19734,Eik,59.024334,9.71518,,sann,,,,700,,Bamble,"4012"
NSR:StopPlace:19739,19739,Rørholtkrysset,58.960163,9.461051,,sann,,,,700,,Bamble,"4012"
NSR:StopPlace:19758,19758,Eikstrand,59.035457,9.713511,,sann,,,,700,,Bamble,"4012"
NSR:StopPlace:19762,19762,Eikstrand søndre,59.029789,9.723611,,sann,,,,700,,Bamble,"4012"
NSR:StopPlace:19767,19767,Salen,59.022395,9.735813,,sann,,,,700,,Bamble,"4012"
NSR:StopPlace:19814,19814,Elvikveien,58.975834,9.656146,,sann,,,,700,,Bamble,"4012"
NSR:StopPlace:19852,19852,Essedumpa,59.00018,9.651331,,sann,,,,700,,Bamble,"4012"
NSR:StopPlace:19854,19854,Halen gård,59.008638,9.744122,,sann,,,,700,,Bamble,"4012"
NSR:StopPlace:19874,19874,Fagerheim,59.015053,9.740634,,sann,,,,700,,Bamble,"4012"
NSR:StopPlace:19892,19892,Siljan gård,59.114023,9.538659,,sann,,,,700,,Bamble,"4012"
NSR:StopPlace:19898,19898,Siljanbukta,59.109876,9.552635,,sann,,,,700,,Bamble,"4012"
NSR:StopPlace:19931,19931,Feset,58.969487,9.548781,,sann,,,,700,,Bamble,"4012"
NSR:StopPlace:19935,19935,Feset Galleri,58.968648,9.563159,,sann,,,,700,,Bamble,"4012"
NSR:StopPlace:19939,19939,Feset bedehus,58.967066,9.556779,,sann,,,,700,,Bamble,"4012"
NSR:StopPlace:19950,19950,Findal,59.044711,9.65076,,sann,,,,700,,Bamble,"4012"
NSR:StopPlace:19954,19954,Findalsvingen,59.043123,9.669922,,sann,,,,700,,Bamble,"4012"
NSR:StopPlace:19958,19958,Finmarkstranda,58.943161,9.587436,,sann,,,,700,,Bamble,"4012"
NSR:StopPlace:20018,20018,Skjerke,59.053903,9.634007,,sann,,,,700,,Bamble,"4012"
NSR:StopPlace:20044,20044,Skoleåsen,59.106617,9.556967,,sann,,,,700,,Bamble,"4012"
NSR:StopPlace:20126,20126,Herre,59.103642,9.563175,,sann,,,,700,,Bamble,"4012"
NSR:StopPlace:20136,20136,Herretorvet,59.102447,9.553328,,sann,,,,700,,Bamble,"4012"
NSR:StopPlace:20139,20139,Herum,59.040745,9.611983,,sann,,,,700,,Bamble,"4012"
NSR:StopPlace:20141,20141,Herumsveien,59.047071,9.647081,,sann,,,,700,,Bamble,"4012"
NSR:StopPlace:20193,20193,Frankrike,58.961989,9.558533,,sann,,,,700,,Bamble,"4012"
NSR:StopPlace:20236,20236,Froste,58.945735,9.499124,,sann,,,,700,,Bamble,"4012"
NSR:StopPlace:20241,20241,Frosteveien kryss,58.955496,9.540442,,sann,,,,700,,Bamble,"4012"
NSR:StopPlace:20268,20268,Melby,58.963718,9.6281,,sann,,,,700,,Bamble,"4012"
NSR:StopPlace:20317,20317,Gamle Bamblevei,59.003576,9.738948,,sann,,,,700,,Bamble,"4012"
NSR:StopPlace:20319,20319,Hydal,59.018078,9.737948,,sann,,,,700,,Bamble,"4012"
NSR:StopPlace:20348,20348,Høen,59.015502,9.608444,,sann,,,,700,,Bamble,"4012"
NSR:StopPlace:20351,20351,Høensbakken,59.015214,9.605392,,sann,,,,700,,Bamble,"4012"
NSR:StopPlace:20353,20353,Mo,58.99034,9.401266,,sann,,,,700,,Bamble,"4012"
NSR:StopPlace:20354,20354,Høenskrysset,59.0157,9.609815,,sann,,,,700,,Bamble,"4012"
NSR:StopPlace:20463,20463,Gjømleåsen,59.013107,9.728571,,sann,,,,700,,Bamble,"4012"
NSR:StopPlace:20502,20502,Grasmyr,59.027993,9.706265,,sann,,,,700,,Bamble,"4012"
NSR:StopPlace:20507,20507,Grassdalkjenna,58.975855,9.4484,,sann,,,,700,,Bamble,"4012"
NSR:StopPlace:20560,20560,Asdal,59.075574,9.608445,,sann,,,,700,,Bamble,"4012"
NSR:StopPlace:20568,20568,Asdalstrand kryss,59.075329,9.614325,,sann,,,,700,,Bamble,"4012"
NSR:StopPlace:20574,20574,Askeklova,58.940248,9.429038,,sann,,,,700,,Bamble,"4012"
NSR:StopPlace:20583,20583,Asvall,59.027383,9.730931,,sann,,,,700,,Bamble,"4012"
NSR:StopPlace:20614,20614,Avstikkeren,59.032249,9.719055,,sann,,,,700,,Bamble,"4012"
NSR:StopPlace:20617,20617,Badeparken,59.012521,9.742482,,sann,,,,700,,Bamble,"4012"
NSR:StopPlace:20647,20647,Bamble Hagesenter,59.029438,9.679559,,sann,,,,700,,Bamble,"4012"
NSR:StopPlace:20649,20649,Langesund torv,59.000897,9.748883,,sann,,,,700,,Bamble,"4012"
NSR:StopPlace:20650,20650,Bamble aldershjem,58.976296,9.589436,,sann,,,,700,,Bamble,"4012"
NSR:StopPlace:20654,20654,Bamble kirke,59.010238,9.663462,,sann,,,,700,,Bamble,"4012"
NSR:StopPlace:20656,20656,Bamble rådhus,59.001725,9.746268,,sann,,,,700,,Bamble,"4012"
NSR:StopPlace:20659,20659,Grasmyr skoler,59.028216,9.704558,,sann,,,,700,,Bamble,"4012"
NSR:StopPlace:20660,20660,Bamblevann,59.015922,9.578508,,sann,,,,700,,Bamble,"4012"
NSR:StopPlace:20711,20711,Lenes ås,59.005308,9.744136,,sann,,,,700,,Bamble,"4012"
NSR:StopPlace:20721,20721,Nordre Grasmyrvei,59.031498,9.705264,,sann,,,,700,,Bamble,"4012"
NSR:StopPlace:20768,20768,Lillebrekke,58.982736,9.61054,,sann,,,,700,,Bamble,"4012"
NSR:StopPlace:20774,20774,Nustad,59.008966,9.732538,,sann,,,,700,,Bamble,"4012"
NSR:StopPlace:20777,20777,Bjordam,58.943945,9.42527,,sann,,,,700,,Bamble,"4012"
NSR:StopPlace:20779,20779,Nustad skolevei,59.006259,9.735507,,sann,,,,700,,Bamble,"4012"
NSR:StopPlace:20780,20780,Bjorvann,58.980055,9.422996,,sann,,,,700,,Bamble,"4012"
NSR:StopPlace:20783,20783,Lillehøen,59.02028,9.617968,,sann,,,,700,,Bamble,"4012"
NSR:StopPlace:20820,20820,Nylende,58.972675,9.541789,,sann,,,,700,,Bamble,"4012"
NSR:StopPlace:20822,20822,Linna,59.031279,9.64666,,sann,,,,700,,Bamble,"4012"
NSR:StopPlace:20825,20825,Linnabakkene,59.040171,9.650948,,sann,,,,700,,Bamble,"4012"
NSR:StopPlace:20903,20903,Omborsnes,59.046127,9.669983,,sann,,,,700,,Bamble,"4012"
NSR:StopPlace:20970,20970,Parnemannsgate,59.003592,9.74479,,sann,,,,700,,Bamble,"4012"
NSR:StopPlace:20994,20994,Vestre Kjellestad,59.039684,9.700638,,sann,,,,700,,Bamble,"4012"
NSR:StopPlace:20996,20996,Kjellestadbakken,59.041857,9.701525,,sann,,,,700,,Bamble,"4012"
NSR:StopPlace:20997,20997,Brevikstrand,58.97366,9.648722,,sann,,,,700,,Bamble,"4012"
NSR:StopPlace:21002,21002,Brevikstrand øst,58.974084,9.652265,,sann,,,,700,,Bamble,"4012"
NSR:StopPlace:21009,21009,Kjær,58.981383,9.605437,,sann,,,,700,,Bamble,"4012"
NSR:StopPlace:21045,21045,Kjørstad,58.953436,9.598945,,sann,,,,700,,Bamble,"4012"
NSR:StopPlace:21063,21063,Tveitan,58.940297,9.559504,,sann,,,,700,,Bamble,"4012"
NSR:StopPlace:21092,21092,Bunes,59.040747,9.705767,,sann,,,,700,,Bamble,"4012"
NSR:StopPlace:21097,21097,Buvollen,58.9554,9.607909,,sann,,,,700,,Bamble,"4012"
NSR:StopPlace:21152,21152,Korskjerra,58.941795,9.552022,,sann,,,,700,,Bamble,"4012"
NSR:StopPlace:21179,21179,Sundby,59.019807,9.720775,,sann,,,,700,,Bamble,"4012"
NSR:StopPlace:21191,21191,Uksodden,59.113402,9.547379,,sann,,,,700,,Bamble,"4012"
NSR:StopPlace:21198,21198,Cocheplassen,59.045502,9.66136,,sann,,,,700,,Bamble,"4012"
NSR:StopPlace:21201,21201,Stranda,59.061935,9.625126,,sann,,,,700,,Bamble,"4012"
NSR:StopPlace:21205,21205,Surtedal kryss,59.066407,9.599953,,sann,,,,700,,Bamble,"4012"
NSR:StopPlace:21275,21275,Synken søndre,59.024645,9.709743,,sann,,,,700,,Bamble,"4012"
NSR:StopPlace:21320,21320,Valle,58.93079,9.564692,,sann,,,,700,,Bamble,"4012"
NSR:StopPlace:21329,21329,Tegdal,58.943649,9.543852,,sann,,,,700,,Bamble,"4012"
NSR:StopPlace:21330,21330,Valle øst,58.932869,9.568582,,sann,,,,700,,Bamble,"4012"
NSR:StopPlace:21358,21358,Valletangen,58.932282,9.558208,,sann,,,,700,,Bamble,"4012"
NSR:StopPlace:21435,21435,Stadionveien,59.038463,9.709645,,sann,,,,700,,Bamble,"4012"
NSR:StopPlace:21452,21452,Stathelle,59.044619,9.694167,,sann,,,,700,,Bamble,"4012"
NSR:StopPlace:21457,21457,Stathelle barneskole,59.034505,9.705097,,sann,,,,700,,Bamble,"4012"
NSR:StopPlace:21462,21462,Stathelle kirke,59.041461,9.698895,,sann,,,,700,,Bamble,"4012"
NSR:StopPlace:21463,21463,Torsdal gård,59.013424,9.590368,,sann,,,,700,,Bamble,"4012"
NSR:StopPlace:21479,21479,Stein,59.004841,9.657618,,sann,,,,700,,Bamble,"4012"
NSR:StopPlace:21493,21493,Trosby kryss,58.958399,9.618986,,sann,,,,700,,Bamble,"4012"
NSR:StopPlace:21520,21520,Stokkebakken,58.98434,9.617343,,sann,,,,700,,Bamble,"4012"
NSR:StopPlace:21534,21534,Vissestad dumpa,58.977569,9.593926,,sann,,,,700,,Bamble,"4012"
NSR:StopPlace:21561,21561,Strandsletta,58.972532,9.645202,,sann,,,,700,,Bamble,"4012"
NSR:StopPlace:21604,21604,Wenkes kilde,58.940636,9.470772,,sann,,,,700,,Bamble,"4012"
NSR:StopPlace:21614,21614,Wingereid,59.027135,9.63608,,sann,,,,700,,Bamble,"4012"
NSR:StopPlace:21616,21616,Wrights gate,59.002803,9.742998,,sann,,,,700,,Bamble,"4012"
NSR:StopPlace:21627,21627,Åby,58.989758,9.632624,,sann,,,,700,,Bamble,"4012"
NSR:StopPlace:21628,21628,Åby kryss,58.99106,9.639606,,sann,,,,700,,Bamble,"4012"
NSR:StopPlace:21630,21630,Åbydumpa,58.991919,9.635669,,sann,,,,700,,Bamble,"4012"
NSR:StopPlace:21675,21675,Åstad,58.987308,9.645803,,sann,,,,700,,Bamble,"4012"
NSR:StopPlace:59368,59368,Rønholtveien,58.968552,9.552937,,sann,,,,700,,Bamble,"4012"
NSR:StopPlace:60663,60663,Langrønningen,58.972351,9.513701,,sann,,,,700,,Bamble,"4012"
NSR:StopPlace:60678,60678,Vallebakken Kjerra,58.935893,9.559393,,sann,,,,700,,Bamble,"4012"
NSR:StopPlace:60679,60679,Ødegården,58.963461,9.560125,,sann,,,,700,,Bamble,"4012"
NSR:StopPlace:61369,61369,Isvannsveien,58.966637,9.489527,,sann,,,,700,,Bamble,"4012"
NSR:StopPlace:61430,61430,Rognstranda kryss,59.007461,9.696651,,sann,,,,700,,Bamble,"4012"
NSR:StopPlace:61431,61431,Hydrostranda,58.997444,9.696158,,sann,,,,700,,Bamble,"4012"
NSR:StopPlace:61432,61432,Gamle Rognsvei kryss,59.010832,9.689608,,sann,,,,700,,Bamble,"4012"
NSR:StopPlace:61434,61434,Tangvallveien kryss,59.016773,9.68044,,sann,,,,700,,Bamble,"4012"
NSR:StopPlace:61999,61999,Heistad,59.012406,9.557563,,sann,,,,700,,Bamble,"4012"
NSR:StopPlace:62461,62461,Surtebogsbakken,59.06335,9.618374,,sann,,,,700,,Bamble,"4012"
NSR:StopPlace:62462,62462,Surtebogen,59.060144,9.623396,,sann,,,,700,,Bamble,"4012"
NSR:StopPlace:62624,62624,Langrønningen senter,58.97189,9.51625,,sann,,,,700,,Bamble,"4012"
NSR:StopPlace:6466,6466,Bakkeveien,58.960036,9.454291,,sann,,,,700,,Bamble,"4012"
NSR:StopPlace:19536,19536,Dammen,59.043761,9.310373,,sann,,,,700,,Drangedal,"4016"
NSR:StopPlace:19556,19556,Graveveien,59.147087,8.817933,,sann,,,,700,,Drangedal,"4016"
NSR:StopPlace:19582,19582,Refsdalen,59.07875,9.068832,,sann,,,,700,,Drangedal,"4016"
NSR:StopPlace:19645,19645,Grova,59.216993,8.771304,,sann,,,,700,,Drangedal,"4016"
NSR:StopPlace:19650,19650,Drangedal 10-årige skole,59.098109,9.058586,,sann,,,,700,,Drangedal,"4016"
NSR:StopPlace:19653,19653,Drangedal stasjon,59.096184,9.06404,,sann,,,,700,,Drangedal,"4016"
NSR:StopPlace:19654,19654,Grovakrysset,59.217185,8.774573,,sann,,,,700,,Drangedal,"4016"
NSR:StopPlace:19672,19672,Rydland,59.113863,8.875564,,sann,,,,700,,Drangedal,"4016"
NSR:StopPlace:19688,19688,Rød,58.948959,9.13172,,sann,,,,700,,Drangedal,"4016"
NSR:StopPlace:19693,19693,Grønland,58.981514,9.233843,,sann,,,,700,,Drangedal,"4016"
NSR:StopPlace:19715,19715,Rønningen,59.214087,8.73172,,sann,,,,700,,Drangedal,"4016"
NSR:StopPlace:19716,19716,Grønstad,58.980126,9.223719,,sann,,,,700,,Drangedal,"4016"
NSR:StopPlace:19745,19745,Eiklikjenn,59.070663,9.34666,,sann,,,,700,,Drangedal,"4016"
NSR:StopPlace:19763,19763,Sagdalen,59.137602,8.837329,,sann,,,,700,,Drangedal,"4016"
NSR:StopPlace:19766,19766,Sagodden,58.967087,9.157771,,sann,,,,700,,Drangedal,"4016"
NSR:StopPlace:19769,19769,Sand,59.09943,8.972885,,sann,,,,700,,Drangedal,"4016"
NSR:StopPlace:19800,19800,Sandvik,59.097303,8.941509,,sann,,,,700,,Drangedal,"4016"
NSR:StopPlace:19801,19801,Ellefskås,59.16472,8.997208,,sann,,,,700,,Drangedal,"4016"
NSR:StopPlace:19817,19817,Sannes,59.03093,9.287522,,sann,,,,700,,Drangedal,"4016"
NSR:StopPlace:19821,19821,Engåbrua,59.033266,9.291346,,sann,,,,700,,Drangedal,"4016"
NSR:StopPlace:19822,19822,Sanneslangen,59.063084,9.32695,,sann,,,,700,,Drangedal,"4016"
NSR:StopPlace:19834,19834,Stengerveien Eskilt,58.973988,9.177379,,sann,,,,700,,Drangedal,"4016"
NSR:StopPlace:19839,19839,Kvennhusbråten,58.958576,9.162083,,sann,,,,700,,Drangedal,"4016"
NSR:StopPlace:19850,19850,Hagfoss,59.222548,8.699585,,sann,,,,700,,Drangedal,"4016"
NSR:StopPlace:19856,19856,Halfardalen,59.115603,9.10242,,sann,,,,700,,Drangedal,"4016"
NSR:StopPlace:19908,19908,Felehovet,59.047468,8.702823,,sann,,,,700,,Drangedal,"4016"
NSR:StopPlace:19909,19909,Singusdal,59.213873,8.941956,,sann,,,,700,,Drangedal,"4016"
NSR:StopPlace:19910,19910,Singusdal skule,59.20235,8.94884,,sann,,,,700,,Drangedal,"4016"
NSR:StopPlace:19915,19915,Haughola,59.093676,8.964213,,sann,,,,700,,Drangedal,"4016"
NSR:StopPlace:19918,19918,Hauglandsgrenda,58.94947,9.103013,,sann,,,,700,,Drangedal,"4016"
NSR:StopPlace:20006,20006,Hegna,58.954527,9.136265,,sann,,,,700,,Drangedal,"4016"
NSR:StopPlace:20010,20010,Skjelbreid,59.00589,9.197171,,sann,,,,700,,Drangedal,"4016"
NSR:StopPlace:20014,20014,Heibø,58.99403,9.198583,,sann,,,,700,,Drangedal,"4016"
NSR:StopPlace:20019,20019,Fjellstad,59.011086,9.196356,,sann,,,,700,,Drangedal,"4016"
NSR:StopPlace:20025,20025,Fjelltun,59.070749,8.779871,,sann,,,,700,,Drangedal,"4016"
NSR:StopPlace:20061,20061,Heldøla,58.978991,9.195005,,sann,,,,700,,Drangedal,"4016"
NSR:StopPlace:20101,20101,Lone,59.19533,8.799323,,sann,,,,700,,Drangedal,"4016"
NSR:StopPlace:20104,20104,Lonebrua,59.188766,8.802466,,sann,,,,700,,Drangedal,"4016"
NSR:StopPlace:20117,20117,Henseid,59.061681,9.205406,,sann,,,,700,,Drangedal,"4016"
NSR:StopPlace:20124,20124,Luggens,59.029054,9.195383,,sann,,,,700,,Drangedal,"4016"
NSR:StopPlace:20159,20159,Hestevelta,59.092023,8.978255,,sann,,,,700,,Drangedal,"4016"
NSR:StopPlace:20183,20183,Fosstveit kryss,58.951404,9.132298,,sann,,,,700,,Drangedal,"4016"
NSR:StopPlace:20225,20225,Løvland,58.939075,9.138206,,sann,,,,700,,Drangedal,"4016"
NSR:StopPlace:20246,20246,Holte,59.090599,9.015349,,sann,,,,700,,Drangedal,"4016"
NSR:StopPlace:20297,20297,Merkebekk,58.980842,9.245755,,sann,,,,700,,Drangedal,"4016"
NSR:StopPlace:20339,20339,Håstul,59.207108,8.945245,,sann,,,,700,,Drangedal,"4016"
NSR:StopPlace:20352,20352,Gareveien,58.962876,9.150546,,sann,,,,700,,Drangedal,"4016"
NSR:StopPlace:20380,20380,Gautefall alpinsenter,59.061679,8.724377,,sann,,,,700,,Drangedal,"4016"
NSR:StopPlace:20383,20383,Gautefall hotell,59.05943,8.720737,,sann,,,,700,,Drangedal,"4016"
NSR:StopPlace:20386,20386,Gautefallbrua,59.07063,8.772005,,sann,,,,700,,Drangedal,"4016"
NSR:StopPlace:20389,20389,Gautefallgardane,59.07079,8.745511,,sann,,,,700,,Drangedal,"4016"
NSR:StopPlace:20391,20391,Moland,59.049439,9.176416,,sann,,,,700,,Drangedal,"4016"
NSR:StopPlace:20392,20392,Gautefallheia,59.054585,8.71493,,sann,,,,700,,Drangedal,"4016"
NSR:StopPlace:20424,20424,Høynesmyr,58.903275,9.180654,,sann,,,,700,,Drangedal,"4016"
NSR:StopPlace:20490,20490,Måbuholt,58.90897,9.175054,,sann,,,,700,,Drangedal,"4016"
NSR:StopPlace:20512,20512,Kroken kapell,58.94488,9.133046,,sann,,,,700,,Drangedal,"4016"
NSR:StopPlace:20515,20515,Kroken skole,58.969612,9.161983,,sann,,,,700,,Drangedal,"4016"
NSR:StopPlace:20518,20518,Krossen,59.177419,8.952355,,sann,,,,700,,Drangedal,"4016"
NSR:StopPlace:20535,20535,Amberslåtta,59.081293,8.828907,,sann,,,,700,,Drangedal,"4016"
NSR:StopPlace:20539,20539,Møane,59.095967,9.043384,,sann,,,,700,,Drangedal,"4016"
NSR:StopPlace:20588,20588,Kåsa,59.092211,8.837248,,sann,,,,700,,Drangedal,"4016"
NSR:StopPlace:20593,20593,Kåsagrenda,59.098284,8.993708,,sann,,,,700,,Drangedal,"4016"
NSR:StopPlace:20596,20596,Kåsmyra,59.09055,9.063655,,sann,,,,700,,Drangedal,"4016"
NSR:StopPlace:20606,20606,Austad,59.217331,8.759782,,sann,,,,700,,Drangedal,"4016"
NSR:StopPlace:20612,20612,Neset,59.105435,8.913412,,sann,,,,700,,Drangedal,"4016"
NSR:StopPlace:20633,20633,Neslandsvatn stasjon,58.97105,9.156538,,sann,,,,700,,Drangedal,"4016"
NSR:StopPlace:20689,20689,Lauvstad,59.220443,8.785037,,sann,,,,700,,Drangedal,"4016"
NSR:StopPlace:20693,20693,Lauvåsen,59.097315,9.057881,,sann,,,,700,,Drangedal,"4016"
NSR:StopPlace:20708,20708,Lenes,58.98947,9.198731,,sann,,,,700,,Drangedal,"4016"
NSR:StopPlace:20713,20713,Lensegrav,59.167725,8.987039,,sann,,,,700,,Drangedal,"4016"
NSR:StopPlace:20715,20715,Berganebrua,59.217247,8.768086,,sann,,,,700,,Drangedal,"4016"
NSR:StopPlace:20735,20735,Lia,59.06954,8.785442,,sann,,,,700,,Drangedal,"4016"
NSR:StopPlace:20786,20786,Lilletørdal,59.217125,8.717683,,sann,,,,700,,Drangedal,"4016"
NSR:StopPlace:20818,20818,Bjørkholt,59.135831,9.074766,,sann,,,,700,,Drangedal,"4016"
NSR:StopPlace:20819,20819,Lingsebru,58.906974,9.157825,,sann,,,,700,,Drangedal,"4016"
NSR:StopPlace:20828,20828,Nås,59.149062,9.040881,,sann,,,,700,,Drangedal,"4016"
NSR:StopPlace:20830,20830,Nås kryss,59.14839,9.050713,,sann,,,,700,,Drangedal,"4016"
NSR:StopPlace:20854,20854,Jonskås,59.133025,8.980417,,sann,,,,700,,Drangedal,"4016"
NSR:StopPlace:20914,20914,Bostrak bensin,59.102673,8.892975,,sann,,,,700,,Drangedal,"4016"
NSR:StopPlace:20917,20917,Bostrak kryss,59.106057,8.887111,,sann,,,,700,,Drangedal,"4016"
NSR:StopPlace:20921,20921,Bostrak skule,59.109766,8.885745,,sann,,,,700,,Drangedal,"4016"
NSR:StopPlace:20934,20934,Kilane,59.05607,9.193702,,sann,,,,700,,Drangedal,"4016"
NSR:StopPlace:20940,20940,Oseid,59.126502,8.987101,,sann,,,,700,,Drangedal,"4016"
NSR:StopPlace:21001,21001,Kjenndalen,59.053781,9.188495,,sann,,,,700,,Drangedal,"4016"
NSR:StopPlace:21004,21004,Kjeåsen,59.101295,9.070212,,sann,,,,700,,Drangedal,"4016"
NSR:StopPlace:21010,21010,Brosdal,59.21563,8.720655,,sann,,,,700,,Drangedal,"4016"
NSR:StopPlace:21024,21024,Brumoen,58.922705,9.142929,,sann,,,,700,,Drangedal,"4016"
NSR:StopPlace:21042,21042,Tveit,59.126985,9.09585,,sann,,,,700,,Drangedal,"4016"
NSR:StopPlace:21058,21058,Bråtkjennane,59.042228,9.156356,,sann,,,,700,,Drangedal,"4016"
NSR:StopPlace:21061,21061,Brødsjø skule,58.925694,9.142555,,sann,,,,700,,Drangedal,"4016"
NSR:StopPlace:21062,21062,Kleppevegen kryss,59.151196,8.813279,,sann,,,,700,,Drangedal,"4016"
NSR:StopPlace:21064,21064,Brødsjø stasjon,58.94168,9.135553,,sann,,,,700,,Drangedal,"4016"
NSR:StopPlace:21088,21088,Bujordet,59.092592,9.026414,,sann,,,,700,,Drangedal,"4016"
NSR:StopPlace:21141,21141,Bø i Tørdal,59.154119,8.811306,,sann,,,,700,,Drangedal,"4016"
NSR:StopPlace:21151,21151,Tørdal skule,59.153187,8.813862,,sann,,,,700,,Drangedal,"4016"
NSR:StopPlace:21157,21157,Korten,58.91629,9.152089,,sann,,,,700,,Drangedal,"4016"
NSR:StopPlace:21175,21175,Gamle Tørdal skule,59.219523,8.706934,,sann,,,,700,,Drangedal,"4016"
NSR:StopPlace:21178,21178,Tørnesbrua,59.086185,8.998582,,sann,,,,700,,Drangedal,"4016"
NSR:StopPlace:21184,21184,Sundet,59.105519,8.903529,,sann,,,,700,,Drangedal,"4016"
NSR:StopPlace:21220,21220,Dale,59.224277,8.687029,,sann,,,,700,,Drangedal,"4016"
NSR:StopPlace:21296,21296,Sønderå,59.048191,9.089225,,sann,,,,700,,Drangedal,"4016"
NSR:StopPlace:21364,21364,Solberg,59.106108,9.092405,,sann,,,,700,,Drangedal,"4016"
NSR:StopPlace:21396,21396,Solvang,59.003129,9.199766,,sann,,,,700,,Drangedal,"4016"
NSR:StopPlace:21445,21445,Vefald ytre,58.998844,9.199777,,sann,,,,700,,Drangedal,"4016"
NSR:StopPlace:21450,21450,Vefald øvre,59.035976,9.183452,,sann,,,,700,,Drangedal,"4016"
NSR:StopPlace:21478,21478,Traskjerra,59.176182,8.817377,,sann,,,,700,,Drangedal,"4016"
NSR:StopPlace:21494,21494,Stengerveien,58.930774,9.14265,,sann,,,,700,,Drangedal,"4016"
NSR:StopPlace:21503,21503,Trytkjennane,59.040141,9.254386,,sann,,,,700,,Drangedal,"4016"
NSR:StopPlace:21544,21544,Vogsland,59.13012,8.849333,,sann,,,,700,,Drangedal,"4016"
NSR:StopPlace:21547,21547,Voje,59.06577,9.071606,,sann,,,,700,,Drangedal,"4016"
NSR:StopPlace:21567,21567,Straume vest,59.052415,9.13193,,sann,,,,700,,Drangedal,"4016"
NSR:StopPlace:21571,21571,Straume øst,59.054852,9.138426,,sann,,,,700,,Drangedal,"4016"
NSR:StopPlace:21574,21574,Straumekrysset,59.046079,9.12664,,sann,,,,700,,Drangedal,"4016"
NSR:StopPlace:21579,21579,Vrålstad,59.121,8.864648,,sann,,,,700,,Drangedal,"4016"
NSR:StopPlace:21589,21589,Våle,59.161118,9.006461,,sann,,,,700,,Drangedal,"4016"
NSR:StopPlace:21592,21592,Viersbekk,59.169679,8.820726,,sann,,,,700,,Drangedal,"4016"
NSR:StopPlace:21599,21599,Vøllestad,59.067732,8.809459,,sann,,,,700,,Drangedal,"4016"
NSR:StopPlace:21602,21602,Vik,59.10363,8.901317,,sann,,,,700,,Drangedal,"4016"
NSR:StopPlace:21632,21632,Åbøbrua,59.234179,8.782121,,sann,,,,700,,Drangedal,"4016"
NSR:StopPlace:21637,21637,Åkragrenda,58.914808,9.157807,,sann,,,,700,,Drangedal,"4016"
NSR:StopPlace:21639,21639,Åkresvingen,59.151851,9.018066,,sann,,,,700,,Drangedal,"4016"
NSR:StopPlace:21662,21662,Åse,59.094247,8.834637,,sann,,,,700,,Drangedal,"4016"
NSR:StopPlace:21713,21713,Øygardsveien,58.95741,9.139431,,sann,,,,700,,Drangedal,"4016"
NSR:StopPlace:58229,58229,Bjønnåsen,59.048903,9.234065,,sann,,,,700,,Drangedal,"4016"
NSR:StopPlace:60013,60013,Solheim,59.062123,9.198472,,sann,,,,700,,Drangedal,"4016"
NSR:StopPlace:60872,60872,Kilen,59.164452,8.815398,,sann,,,,700,,Drangedal,"4016"
NSR:StopPlace:62047,62047,Ulvekula,59.096843,9.051675,,sann,,,,700,,Drangedal,"4016"
NSR:StopPlace:62665,62665,Stenger,58.946097,9.156249,,sann,,,,700,,Drangedal,"4016"
NSR:StopPlace:62666,62666,Eskilt,58.968005,9.181212,,sann,,,,700,,Drangedal,"4016"
NSR:StopPlace:19624,19624,Dorholt,59.285864,9.113742,,sann,,,,700,,Nome,"4018"
NSR:StopPlace:19625,19625,Roa,59.250676,9.362634,,sann,,,,700,,Nome,"4018"
NSR:StopPlace:19641,19641,Romnes,59.312227,9.243264,,sann,,,,700,,Nome,"4018"
NSR:StopPlace:19674,19674,Rye Kittilsen,59.282123,9.237443,,sann,,,,700,,Nome,"4018"
NSR:StopPlace:19724,19724,Rønningen Landsmarka,59.214762,9.185624,,sann,,,,700,,Nome,"4018"
NSR:StopPlace:19727,19727,Eidsbygda skole,59.292522,9.195921,,sann,,,,700,,Nome,"4018"
NSR:StopPlace:19755,19755,Sagamoen,59.275475,9.109137,,sann,,,,700,,Nome,"4018"
NSR:StopPlace:19815,19815,Kaste,59.288559,9.255574,,sann,,,,700,,Nome,"4018"
NSR:StopPlace:19861,19861,Evju,59.307451,9.132935,,sann,,,,700,,Nome,"4018"
NSR:StopPlace:19904,19904,Febakke,59.27675,9.329178,,sann,,,,700,,Nome,"4018"
NSR:StopPlace:19923,19923,Fen,59.27045,9.303794,,sann,,,,700,,Nome,"4018"
NSR:StopPlace:19928,19928,Fen skole,59.271916,9.303797,,sann,,,,700,,Nome,"4018"
NSR:StopPlace:20038,20038,Heisholtkrysset,59.280145,9.24307,,sann,,,,700,,Nome,"4018"
NSR:StopPlace:20065,20065,Helgen,59.255634,9.358769,,sann,,,,700,,Nome,"4018"
NSR:StopPlace:20068,20068,Helgen snuplass,59.25396,9.358347,,sann,,,,700,,Nome,"4018"
NSR:StopPlace:20074,20074,Enggravsdalen,59.316586,9.097331,,sann,,,,700,,Nome,"4018"
NSR:StopPlace:20078,20078,Helgja,59.26154,9.35206,,sann,,,,700,,Nome,"4018"
NSR:StopPlace:20093,20093,Lona kryss,59.350083,9.069288,,sann,,,,700,,Nome,"4018"
NSR:StopPlace:20114,20114,Flom,59.324515,8.978244,,sann,,,,700,,Nome,"4018"
NSR:StopPlace:20140,20140,Lunde 10-årige skole,59.305153,9.10382,,sann,,,,700,,Nome,"4018"
NSR:StopPlace:20145,20145,Lunde kirke,59.306525,9.112875,,sann,,,,700,,Nome,"4018"
NSR:StopPlace:20151,20151,Lunde sentrum,59.299633,9.107693,,sann,,,,700,,Nome,"4018"
NSR:StopPlace:20155,20155,Lunde stasjon,59.299242,9.101119,,sann,,,,700,,Nome,"4018"
NSR:StopPlace:20178,20178,Hjelset brygge,59.244745,9.368286,,sann,,,,700,,Nome,"4018"
NSR:StopPlace:20197,20197,Lågmo,59.301914,9.041045,,sann,,,,700,,Nome,"4018"
NSR:StopPlace:20203,20203,Hogga,59.299897,9.042354,,sann,,,,700,,Nome,"4018"
NSR:StopPlace:20219,20219,Fritheim,59.229698,9.17145,,sann,,,,700,,Nome,"4018"
NSR:StopPlace:20255,20255,Holteheia kryss,59.310667,9.168897,,sann,,,,700,,Nome,"4018"
NSR:StopPlace:20274,20274,Funnemark Gåserud,59.311127,9.186949,,sann,,,,700,,Nome,"4018"
NSR:StopPlace:20469,20469,Jacobskås,59.258809,9.354589,,sann,,,,700,,Nome,"4018"
NSR:StopPlace:20516,20516,Ajertangen,59.30428,9.103562,,sann,,,,700,,Nome,"4018"
NSR:StopPlace:20553,20553,Arbeideren,59.284876,9.234866,,sann,,,,700,,Nome,"4018"
NSR:StopPlace:20569,20569,Namløs,59.265941,9.322316,,sann,,,,700,,Nome,"4018"
NSR:StopPlace:20591,20591,Kåsa,59.337185,9.101583,,sann,,,,700,,Nome,"4018"
NSR:StopPlace:20595,20595,Aug. Cappelens veg,59.276226,9.257425,,sann,,,,700,,Nome,"4018"
NSR:StopPlace:20607,20607,Landsmarka kapell,59.245847,9.160539,,sann,,,,700,,Nome,"4018"
NSR:StopPlace:20608,20608,Nesdokka,59.321122,8.974992,,sann,,,,700,,Nome,"4018"
NSR:StopPlace:20618,20618,Landsverk brygge,59.320778,9.003454,,sann,,,,700,,Nome,"4018"
NSR:StopPlace:20638,20638,Langeland,59.229123,9.391892,,sann,,,,700,,Nome,"4018"
NSR:StopPlace:20641,20641,Langeland snuplass,59.229343,9.393082,,sann,,,,700,,Nome,"4018"
NSR:StopPlace:20677,20677,Barlaug,59.30683,9.145265,,sann,,,,700,,Nome,"4018"
NSR:StopPlace:20683,20683,Nometoppen,59.289545,9.18217,,sann,,,,700,,Nome,"4018"
NSR:StopPlace:20698,20698,Leikvoll,59.325224,9.0194,,sann,,,,700,,Nome,"4018"
NSR:StopPlace:20701,20701,Leikvollvegen,59.328014,9.114507,,sann,,,,700,,Nome,"4018"
NSR:StopPlace:20731,20731,Berget,59.272978,9.263085,,sann,,,,700,,Nome,"4018"
NSR:StopPlace:20738,20738,Norheim,59.35211,9.083531,,sann,,,,700,,Nome,"4018"
NSR:StopPlace:20861,20861,Odden,59.28808,9.230757,,sann,,,,700,,Nome,"4018"
NSR:StopPlace:20875,20875,Jønntvedt,59.262868,9.335774,,sann,,,,700,,Nome,"4018"
NSR:StopPlace:20974,20974,Pershaug,59.292021,9.062995,,sann,,,,700,,Nome,"4018"
NSR:StopPlace:20984,20984,Kjeldal sluse,59.291955,9.052128,,sann,,,,700,,Nome,"4018"
NSR:StopPlace:21011,21011,Tufte,59.270182,9.285853,,sann,,,,700,,Nome,"4018"
NSR:StopPlace:21048,21048,Tveit,59.325911,8.990867,,sann,,,,700,,Nome,"4018"
NSR:StopPlace:21057,21057,Kleppe kryss,59.3603,9.077835,,sann,,,,700,,Nome,"4018"
NSR:StopPlace:21060,21060,Kleppetoppen,59.36132,9.058402,,sann,,,,700,,Nome,"4018"
NSR:StopPlace:21096,21096,Klovdal,59.234464,9.380138,,sann,,,,700,,Nome,"4018"
NSR:StopPlace:21167,21167,Tyri,59.27153,9.125747,,sann,,,,700,,Nome,"4018"
NSR:StopPlace:21192,21192,Børte kryss,59.357639,9.060992,,sann,,,,700,,Nome,"4018"
NSR:StopPlace:21199,21199,Ulefoss Senter,59.280287,9.267735,,sann,,,,700,,Nome,"4018"
NSR:StopPlace:21202,21202,Dagsrud,59.290479,9.209848,,sann,,,,700,,Nome,"4018"
NSR:StopPlace:21204,21204,Ulefoss sluse,59.282127,9.256368,,sann,,,,700,,Nome,"4018"
NSR:StopPlace:21207,21207,Holla 10-årige skole,59.278625,9.262146,,sann,,,,700,,Nome,"4018"
NSR:StopPlace:21214,21214,Suvdal kryss,59.344624,9.075069,,sann,,,,700,,Nome,"4018"
NSR:StopPlace:21235,21235,Svenseid,59.335062,9.092851,,sann,,,,700,,Nome,"4018"
NSR:StopPlace:21292,21292,Skårdalskrysset,59.288589,9.175642,,sann,,,,700,,Nome,"4018"
NSR:StopPlace:21309,21309,Søvedalen,59.272413,9.280683,,sann,,,,700,,Nome,"4018"
NSR:StopPlace:21326,21326,Lunde sluse Slusevegen,59.29882,9.09132,,sann,,,,700,,Nome,"4018"
NSR:StopPlace:21328,21328,Slåttekås,59.318491,9.23929,,sann,,,,700,,Nome,"4018"
NSR:StopPlace:21369,21369,Solevja,59.30213,9.083464,,sann,,,,700,,Nome,"4018"
NSR:StopPlace:21417,21417,Vassås,59.292394,9.108683,,sann,,,,700,,Nome,"4018"
NSR:StopPlace:21444,21444,Standeren,59.301009,9.077623,,sann,,,,700,,Nome,"4018"
NSR:StopPlace:21471,21471,Stavsholt,59.292744,9.078366,,sann,,,,700,,Nome,"4018"
NSR:StopPlace:21481,21481,Tremyrgrenda,59.315927,9.033026,,sann,,,,700,,Nome,"4018"
NSR:StopPlace:21510,21510,Verpe,59.297652,9.055497,,sann,,,,700,,Nome,"4018"
NSR:StopPlace:21540,21540,Vesthagen,59.276236,9.277895,,sann,,,,700,,Nome,"4018"
NSR:StopPlace:21558,21558,Vrangfoss sluse fv. 102,59.300643,9.203759,,sann,,,,700,,Nome,"4018"
NSR:StopPlace:21560,21560,Vrangfosskrysset,59.292125,9.201627,,sann,,,,700,,Nome,"4018"
NSR:StopPlace:21578,21578,Strengen kryss,59.319327,8.991607,,sann,,,,700,,Nome,"4018"
NSR:StopPlace:21591,21591,Vårheim,59.269641,9.294617,,sann,,,,700,,Nome,"4018"
NSR:StopPlace:21671,21671,Åskollen,59.289064,9.112138,,sann,,,,700,,Nome,"4018"
NSR:StopPlace:21692,21692,Østerå bru,59.307871,9.105018,,sann,,,,700,,Nome,"4018"
NSR:StopPlace:21700,21700,Øvre Verket,59.282974,9.264839,,sann,,,,700,,Nome,"4018"
NSR:StopPlace:21709,21709,Øygarden,59.29241,9.144462,,sann,,,,700,,Nome,"4018"
NSR:StopPlace:58962,58962,Ringsevja Bo- og servicesenter,59.279394,9.272029,,sann,,,,700,,Nome,"4018"
NSR:StopPlace:19731,19731,Eidsfoss sluse,59.296937,9.221223,,sann,,,,1000,,Nome,"4018"
NSR:StopPlace:20153,20153,Lunde sluse,59.300608,9.088533,,sann,,,,1000,,Nome,"4018"
NSR:StopPlace:20206,20206,Hogga sluse,59.303298,9.042479,,sann,,,,1000,,Nome,"4018"
NSR:StopPlace:20987,20987,Kjeldal sluse,59.292175,9.051458,,sann,,,,1000,,Nome,"4018"
NSR:StopPlace:21212,21212,Ulefoss sluse,59.28178,9.254729,,sann,,,,1000,,Nome,"4018"
NSR:StopPlace:21556,21556,Vrangfoss sluse,59.302153,9.201986,,sann,,,,1000,,Nome,"4018"
NSR:StopPlace:19549,19549,Portør,58.803646,9.430002,,sann,,,,700,,Kragerø,"4014"
NSR:StopPlace:19580,19580,Refsdal,58.902994,9.31675,,sann,,,,700,,Kragerø,"4014"
NSR:StopPlace:19601,19601,Rindehøgda,58.896692,9.312953,,sann,,,,700,,Kragerø,"4014"
NSR:StopPlace:19607,19607,Ringveien,58.86725,9.391378,,sann,,,,700,,Kragerø,"4014"
NSR:StopPlace:19630,19630,Rognlitoppen,58.84151,9.416954,,sann,,,,700,,Kragerø,"4014"
NSR:StopPlace:19631,19631,Gropedalstoppen,58.930235,9.321359,,sann,,,,700,,Kragerø,"4014"
NSR:StopPlace:19722,19722,Rønningen,58.895585,9.334359,,sann,,,,700,,Kragerø,"4014"
NSR:StopPlace:19740,19740,Rørvik,58.868165,9.390135,,sann,,,,700,,Kragerø,"4014"
NSR:StopPlace:19759,19759,Sagaveien,58.936233,9.327276,,sann,,,,700,,Kragerø,"4014"
NSR:StopPlace:19780,19780,Eklund,58.88832,9.356734,,sann,,,,700,,Kragerø,"4014"
NSR:StopPlace:19793,19793,Sandtangen,58.828992,9.298638,,sann,,,,700,,Kragerø,"4014"
NSR:StopPlace:19808,19808,Sandåsen,58.877604,9.411888,,sann,,,,700,,Kragerø,"4014"
NSR:StopPlace:19827,19827,Sannidal,58.899968,9.31622,,sann,,,,700,,Kragerø,"4014"
NSR:StopPlace:19832,19832,Sannidal skole,58.893377,9.296378,,sann,,,,700,,Kragerø,"4014"
NSR:StopPlace:19873,19873,Haslum,58.806435,9.378043,,sann,,,,700,,Kragerø,"4014"
NSR:StopPlace:19893,19893,Farsjø,58.952895,9.330448,,sann,,,,700,,Kragerø,"4014"
NSR:StopPlace:19917,19917,Siritun,58.867553,9.399155,,sann,,,,700,,Kragerø,"4014"
NSR:StopPlace:19925,19925,Sjåen 1,58.86824,9.377282,,sann,,,,700,,Kragerø,"4014"
NSR:StopPlace:19927,19927,Sjåen 2,58.868197,9.375125,,sann,,,,700,,Kragerø,"4014"
NSR:StopPlace:19930,19930,Sjåen 3,58.868903,9.373095,,sann,,,,700,,Kragerø,"4014"
NSR:StopPlace:19936,19936,Skarbodalen,58.908029,9.419206,,sann,,,,700,,Kragerø,"4014"
NSR:StopPlace:19940,19940,Skarbo,58.905625,9.404239,,sann,,,,700,,Kragerø,"4014"
NSR:StopPlace:19943,19943,Fikkjebakke,58.901191,9.25225,,sann,,,,700,,Kragerø,"4014"
NSR:StopPlace:19980,19980,Finnsbudalen,58.799417,9.37221,,sann,,,,700,,Kragerø,"4014"
NSR:StopPlace:20037,20037,Skogstjerneveien,58.87225,9.378412,,sann,,,,700,,Kragerø,"4014"
NSR:StopPlace:20075,20075,Litangen,58.845841,9.286612,,sann,,,,700,,Kragerø,"4014"
NSR:StopPlace:20083,20083,Helle,58.901041,9.378605,,sann,,,,700,,Kragerø,"4014"
NSR:StopPlace:20085,20085,Lofthaug,58.888753,9.276827,,sann,,,,700,,Kragerø,"4014"
NSR:StopPlace:20089,20089,Helle jernindustri,58.883625,9.366271,,sann,,,,700,,Kragerø,"4014"
NSR:StopPlace:20092,20092,Helle skole,58.90206,9.372037,,sann,,,,700,,Kragerø,"4014"
NSR:StopPlace:20100,20100,Hellemyrveien,58.79092,9.356678,,sann,,,,700,,Kragerø,"4014"
NSR:StopPlace:20121,20121,Lovisenbergveien,58.878307,9.398846,,sann,,,,700,,Kragerø,"4014"
NSR:StopPlace:20162,20162,Hesthagen,58.869072,9.392297,,sann,,,,700,,Kragerø,"4014"
NSR:StopPlace:20164,20164,Fossen,58.93457,9.325865,,sann,,,,700,,Kragerø,"4014"
NSR:StopPlace:20165,20165,Hestøya,58.879537,9.395324,,sann,,,,700,,Kragerø,"4014"
NSR:StopPlace:20175,20175,Fossing,58.937354,9.458528,,sann,,,,700,,Kragerø,"4014"
NSR:StopPlace:20212,20212,Lønne kryss,58.891626,9.275901,,sann,,,,700,,Kragerø,"4014"
NSR:StopPlace:20216,20216,Frikirken,58.866714,9.406284,,sann,,,,700,,Kragerø,"4014"
NSR:StopPlace:20231,20231,Holtane,58.920497,9.318585,,sann,,,,700,,Kragerø,"4014"
NSR:StopPlace:20243,20243,Maistanga,58.872577,9.407864,,sann,,,,700,,Kragerø,"4014"
NSR:StopPlace:20250,20250,Frydensborg,58.8729,9.399957,,sann,,,,700,,Kragerø,"4014"
NSR:StopPlace:20256,20256,Frydensborgveien kryss,58.870252,9.389609,,sann,,,,700,,Kragerø,"4014"
NSR:StopPlace:20266,20266,Holtsvingen,58.895858,9.291259,,sann,,,,700,,Kragerø,"4014"
NSR:StopPlace:20308,20308,Hundsvikkilen,58.940971,9.33344,,sann,,,,700,,Kragerø,"4014"
NSR:StopPlace:20332,20332,Gamle Sollia kryss,58.899591,9.373606,,sann,,,,700,,Kragerø,"4014"
NSR:StopPlace:20355,20355,Mo Øverbø,58.893629,9.270385,,sann,,,,700,,Kragerø,"4014"
NSR:StopPlace:20430,20430,Gjerdemyra,58.928669,9.317999,,sann,,,,700,,Kragerø,"4014"
NSR:StopPlace:20431,20431,Høyåsen,58.866386,9.401911,,sann,,,,700,,Kragerø,"4014"
NSR:StopPlace:20447,20447,Indrestrand,58.880563,9.367656,,sann,,,,700,,Kragerø,"4014"
NSR:StopPlace:20456,20456,Myra,58.836285,9.421361,,sann,,,,700,,Kragerø,"4014"
NSR:StopPlace:20477,20477,Kragerø pleiehjem,58.873093,9.411501,,sann,,,,700,,Kragerø,"4014"
NSR:StopPlace:20480,20480,Kragerø ridesenter,58.847826,9.280391,,sann,,,,700,,Kragerø,"4014"
NSR:StopPlace:20481,20481,Gofjell,58.924641,9.399539,,sann,,,,700,,Kragerø,"4014"
NSR:StopPlace:20485,20485,Kragerø rutebilstasjon,58.869542,9.414792,,sann,,,,700,,Kragerø,"4014"
NSR:StopPlace:20488,20488,Kragerø skole,58.86769,9.407908,,sann,,,,700,,Kragerø,"4014"
NSR:StopPlace:20491,20491,Kragerø stadion,58.871307,9.40615,,sann,,,,700,,Kragerø,"4014"
NSR:StopPlace:20496,20496,Kragerø vgs.,58.870803,9.392488,,sann,,,,700,,Kragerø,"4014"
NSR:StopPlace:20498,20498,Kragerøfjorden Camping,58.84307,9.353714,,sann,,,,700,,Kragerø,"4014"
NSR:StopPlace:20500,20500,Måneliheia vest,58.894465,9.362445,,sann,,,,700,,Kragerø,"4014"
NSR:StopPlace:20506,20506,Måneliheia øst,58.898339,9.371106,,sann,,,,700,,Kragerø,"4014"
NSR:StopPlace:20551,20551,Mørkvikveien kryss,58.930103,9.461799,,sann,,,,700,,Kragerø,"4014"
NSR:StopPlace:20651,20651,Langevann,58.849789,9.25471,,sann,,,,700,,Kragerø,"4014"
NSR:StopPlace:20655,20655,Langkjærbakken,58.785064,9.349151,,sann,,,,700,,Kragerø,"4014"
NSR:StopPlace:20675,20675,Banktrappene,58.869377,9.410667,,sann,,,,700,,Kragerø,"4014"
NSR:StopPlace:20682,20682,Barmsøyveien kryss,58.925854,9.466357,,sann,,,,700,,Kragerø,"4014"
NSR:StopPlace:20699,20699,Bekkedalen,58.876129,9.412247,,sann,,,,700,,Kragerø,"4014"
NSR:StopPlace:20700,20700,Bekkedalsveien,58.875223,9.41122,,sann,,,,700,,Kragerø,"4014"
NSR:StopPlace:20726,20726,Levang,58.791992,9.372725,,sann,,,,700,,Kragerø,"4014"
NSR:StopPlace:20732,20732,Levangsheia skole,58.850497,9.402119,,sann,,,,700,,Kragerø,"4014"
NSR:StopPlace:20742,20742,Bergmesterveien,58.87649,9.413282,,sann,,,,700,,Kragerø,"4014"
NSR:StopPlace:20766,20766,Lille Ringvei,58.867104,9.393597,,sann,,,,700,,Kragerø,"4014"
NSR:StopPlace:20810,20810,Lindheim,58.862264,9.25399,,sann,,,,700,,Kragerø,"4014"
NSR:StopPlace:20815,20815,Lindvikskollen kryss,58.869192,9.370463,,sann,,,,700,,Kragerø,"4014"
NSR:StopPlace:20865,20865,Bolten,58.910556,9.388975,,sann,,,,700,,Kragerø,"4014"
NSR:StopPlace:20889,20889,Kalstad,58.871407,9.395328,,sann,,,,700,,Kragerø,"4014"
NSR:StopPlace:20892,20892,Kalstad kirkegård,58.871352,9.382516,,sann,,,,700,,Kragerø,"4014"
NSR:StopPlace:20896,20896,Kalstadkrysset,58.872582,9.375441,,sann,,,,700,,Kragerø,"4014"
NSR:StopPlace:20904,20904,Kalstadsletta,58.874216,9.382713,,sann,,,,700,,Kragerø,"4014"
NSR:StopPlace:20906,20906,Borteidveien kryss,58.910761,9.438315,,sann,,,,700,,Kragerø,"4014"
NSR:StopPlace:20946,20946,Kilen bedehus,58.87694,9.39625,,sann,,,,700,,Kragerø,"4014"
NSR:StopPlace:20954,20954,Kilskrysset,58.893502,9.304227,,sann,,,,700,,Kragerø,"4014"
NSR:StopPlace:20960,20960,Kirketomta,58.870817,9.412607,,sann,,,,700,,Kragerø,"4014"
NSR:StopPlace:21015,21015,Kjølebrønd,58.831066,9.275122,,sann,,,,700,,Kragerø,"4014"
NSR:StopPlace:21046,21046,Brynemo,58.891066,9.359684,,sann,,,,700,,Kragerø,"4014"
NSR:StopPlace:21067,21067,Brøløs,58.929258,9.404801,,sann,,,,700,,Kragerø,"4014"
NSR:StopPlace:21121,21121,Bånn,58.916337,9.396577,,sann,,,,700,,Kragerø,"4014"
NSR:StopPlace:21170,21170,Kragerø Resort,58.847958,9.397018,,sann,,,,700,,Kragerø,"4014"
NSR:StopPlace:21206,21206,Dal,58.966929,9.321146,,sann,,,,700,,Kragerø,"4014"
NSR:StopPlace:21213,21213,Dalaneveien,58.871196,9.374691,,sann,,,,700,,Kragerø,"4014"
NSR:StopPlace:21250,21250,Sykehuset Kragerø,58.87867,9.404961,,sann,,,,700,,Kragerø,"4014"
NSR:StopPlace:21257,21257,Utsikten,58.867385,9.396914,,sann,,,,700,,Kragerø,"4014"
NSR:StopPlace:21260,21260,Dalsfoss kryss,58.96233,9.3218,,sann,,,,700,,Kragerø,"4014"
NSR:StopPlace:21270,21270,Vadfossbrua,58.892254,9.342448,,sann,,,,700,,Kragerø,"4014"
NSR:StopPlace:21290,21290,Valbergveien kryss,58.886481,9.39098,,sann,,,,700,,Kragerø,"4014"
NSR:StopPlace:21302,21302,Skåtøy Korset brygge,58.84487,9.512181,,sann,,,,700,,Kragerø,"4014"
NSR:StopPlace:21307,21307,Skåtøy kirke,58.859579,9.47623,,sann,,,,700,,Kragerø,"4014"
NSR:StopPlace:21312,21312,Skåtøyroa ferjekai,58.860013,9.441767,,sann,,,,700,,Kragerø,"4014"
NSR:StopPlace:21321,21321,Sluppan,58.874274,9.368147,,sann,,,,700,,Kragerø,"4014"
NSR:StopPlace:21322,21322,Tangheia,58.874351,9.414213,,sann,,,,700,,Kragerø,"4014"
NSR:StopPlace:21353,21353,Thorsdal,58.793415,9.398522,,sann,,,,700,,Kragerø,"4014"
NSR:StopPlace:21382,21382,Sollia,58.896362,9.366861,,sann,,,,700,,Kragerø,"4014"
NSR:StopPlace:21394,21394,Tisjøveien,58.93701,9.330459,,sann,,,,700,,Kragerø,"4014"
NSR:StopPlace:21406,21406,Solåsen,58.872121,9.364945,,sann,,,,700,,Kragerø,"4014"
NSR:StopPlace:21430,21430,Stabbestad ferjekai,58.850784,9.404988,,sann,,,,700,,Kragerø,"4014"
NSR:StopPlace:21491,21491,Vennevikveien,58.859649,9.457641,,sann,,,,700,,Kragerø,"4014"
NSR:StopPlace:21513,21513,Stilnestangen,58.875199,9.41594,,sann,,,,700,,Kragerø,"4014"
NSR:StopPlace:21530,21530,Store Ringvei kryss,58.868205,9.392501,,sann,,,,700,,Kragerø,"4014"
NSR:StopPlace:21545,21545,Vestheia,58.868489,9.400751,,sann,,,,700,,Kragerø,"4014"
NSR:StopPlace:21550,21550,Vestheia kryss,58.869753,9.405836,,sann,,,,700,,Kragerø,"4014"
NSR:StopPlace:21555,21555,Vestheiveien,58.869212,9.4043,,sann,,,,700,,Kragerø,"4014"
NSR:StopPlace:21582,21582,Vidsjåveien kryss,58.86945,9.37799,,sann,,,,700,,Kragerø,"4014"
NSR:StopPlace:21610,21610,Støle,58.81862,9.378225,,sann,,,,700,,Kragerø,"4014"
NSR:StopPlace:21657,21657,Årø,58.890552,9.348885,,sann,,,,700,,Kragerø,"4014"
NSR:StopPlace:21658,21658,Årø skole,58.890358,9.355839,,sann,,,,700,,Kragerø,"4014"
NSR:StopPlace:21685,21685,Ørsvik,58.791679,9.389295,,sann,,,,700,,Kragerø,"4014"
NSR:StopPlace:21691,21691,Ørvik,58.83935,9.341236,,sann,,,,700,,Kragerø,"4014"
NSR:StopPlace:61991,61991,Kolstangen,58.797332,9.408725,,sann,,,,700,,Kragerø,"4014"
NSR:StopPlace:61993,61993,Stangnes,58.789438,9.37983,,sann,,,,700,,Kragerø,"4014"
NSR:StopPlace:61994,61994,Haslum nord,58.809926,9.378117,,sann,,,,700,,Kragerø,"4014"
NSR:StopPlace:61996,61996,Tonstøl,58.829001,9.395329,,sann,,,,700,,Kragerø,"4014"
NSR:StopPlace:61997,61997,Kleivaveien,58.903157,9.390259,,sann,,,,700,,Kragerø,"4014"
NSR:StopPlace:62563,62563,Kirkebukta,58.872383,9.414892,,sann,,,,700,,Kragerø,"4014"
NSR:StopPlace:62564,62564,Haugstranda,58.87066,9.372459,,sann,,,,700,,Kragerø,"4014"
NSR:StopPlace:63810,63810,Bjerketangen,58.896542,9.452531,,sann,,,,700,,Kragerø,"4014"
NSR:StopPlace:19732,19732,Gumøy Tangane brygge,58.884387,9.519423,,sann,,,,1000,,Kragerø,"4014"
NSR:StopPlace:20283,20283,Furuholmen brygge,58.86008,9.404823,,sann,,,,1000,,Kragerø,"4014"
NSR:StopPlace:20471,20471,Kragerø ferjekai,58.870373,9.416053,,sann,,,,1000,,Kragerø,"4014"
NSR:StopPlace:20670,20670,Langøy brygge,58.902477,9.487972,,sann,,,,1000,,Kragerø,"4014"
NSR:StopPlace:20849,20849,Jomfruland Tårnbrygga,58.866066,9.589232,,sann,,,,1000,,Kragerø,"4014"
NSR:StopPlace:20852,20852,Jomfruland Åsvik ferjekai,58.859194,9.573598,,sann,,,,1000,,Kragerø,"4014"
NSR:StopPlace:20959,20959,Kirkeholmen brygge,58.860237,9.391254,,sann,,,,1000,,Kragerø,"4014"
NSR:StopPlace:21130,21130,Bærø Gulodden brygge,58.873796,9.439965,,sann,,,,1000,,Kragerø,"4014"
NSR:StopPlace:21171,21171,Tåtøy ferjekai,58.858117,9.399474,,sann,,,,1000,,Kragerø,"4014"
NSR:StopPlace:21305,21305,Skåtøy brygge,58.862103,9.478853,,sann,,,,1000,,Kragerø,"4014"
NSR:StopPlace:21310,21310,Skåtøyroa ferjekai,58.860079,9.4414,,sann,,,,1000,,Kragerø,"4014"
NSR:StopPlace:21429,21429,Stabbestad ferjekai,58.850876,9.40539,,sann,,,,1000,,Kragerø,"4014"
NSR:StopPlace:21315,21315,Tangen,58.895669,9.284528,,sann,,,sann,700,,Kragerø,"4014"
NSR:StopPlace:19547,19547,Gravdalen,59.765709,7.618364,,sann,,,,700,,Vinje,"4036"
NSR:StopPlace:19555,19555,Damsvingen,59.607932,8.198624,,sann,,,,700,,Vinje,"4036"
NSR:StopPlace:19567,19567,Universitetet USN Rauland,59.696173,8.044096,,sann,,,,700,,Vinje,"4036"
NSR:StopPlace:19569,19569,Rauland Høgfjellshotell,59.739861,8.137456,,sann,,,,700,,Vinje,"4036"
NSR:StopPlace:19570,19570,Rauland Krossen,59.694826,8.063879,,sann,,,,700,,Vinje,"4036"
NSR:StopPlace:19572,19572,Rauland industriområde,59.691089,8.062865,,sann,,,,700,,Vinje,"4036"
NSR:StopPlace:19573,19573,Rauland skisenter,59.722541,8.12797,,sann,,,,700,,Vinje,"4036"
NSR:StopPlace:19575,19575,Raulandsgrend,59.720424,8.012162,,sann,,,,700,,Vinje,"4036"
NSR:StopPlace:19590,19590,Djuvet,59.596903,8.189543,,sann,,,,700,,Vinje,"4036"
NSR:StopPlace:19597,19597,Grindheim,59.618272,7.860061,,sann,,,,700,,Vinje,"4036"
NSR:StopPlace:19643,19643,Rompom,59.647959,8.192294,,sann,,,,700,,Vinje,"4036"
NSR:StopPlace:19644,19644,Rorge,59.637322,8.201469,,sann,,,,700,,Vinje,"4036"
NSR:StopPlace:19662,19662,Grungebru,59.698736,7.814887,,sann,,,,700,,Vinje,"4036"
NSR:StopPlace:19666,19666,Drotning øvre,59.58097,7.996886,,sann,,,,700,,Vinje,"4036"
NSR:StopPlace:19667,19667,Grungedal E134,59.708502,7.771293,,sann,,,,700,,Vinje,"4036"
NSR:StopPlace:19669,19669,Rukkemo,59.711357,8.115053,,sann,,,,700,,Vinje,"4036"
NSR:StopPlace:19671,19671,Grungedal kyrkje,59.72349,7.697693,,sann,,,,700,,Vinje,"4036"
NSR:StopPlace:19673,19673,Grungedal sentrum,59.713195,7.755679,,sann,,,,700,,Vinje,"4036"
NSR:StopPlace:19691,19691,Edland kryss,59.737264,7.603343,,sann,,,,700,,Vinje,"4036"
NSR:StopPlace:19695,19695,Edland skule,59.73852,7.597337,,sann,,,,700,,Vinje,"4036"
NSR:StopPlace:19738,19738,Eikeland,59.771736,8.219364,,sann,,,,700,,Vinje,"4036"
NSR:StopPlace:19746,19746,Røydokk,59.68794,8.119733,,sann,,,,700,,Vinje,"4036"
NSR:StopPlace:19804,19804,Sandviki Øyfjellvegen,59.682432,8.146212,,sann,,,,700,,Vinje,"4036"
NSR:StopPlace:19876,19876,Haug,59.814442,8.132852,,sann,,,,700,,Vinje,"4036"
NSR:StopPlace:19945,19945,Haugsæl,59.611987,7.890988,,sann,,,,700,,Vinje,"4036"
NSR:StopPlace:19948,19948,Haukeli,59.735009,7.550864,,sann,,,,700,,Vinje,"4036"
NSR:StopPlace:19952,19952,Haukeli industriområde,59.739178,7.571487,,sann,,,,700,,Vinje,"4036"
NSR:StopPlace:20000,20000,Skinnarland,59.784323,8.168182,,sann,,,,700,,Vinje,"4036"
NSR:StopPlace:20017,20017,Heie kryss,59.657523,7.807218,,sann,,,,700,,Vinje,"4036"
NSR:StopPlace:20087,20087,Lognvik,59.675193,8.179118,,sann,,,,700,,Vinje,"4036"
NSR:StopPlace:20116,20116,Flothyl,59.728204,7.472808,,sann,,,,700,,Vinje,"4036"
NSR:StopPlace:20245,20245,Mannås,59.553863,7.97292,,sann,,,,700,,Vinje,"4036"
NSR:StopPlace:20277,20277,Funnlid,59.677989,8.170953,,sann,,,,700,,Vinje,"4036"
NSR:StopPlace:20278,20278,Hommo,59.610116,8.020416,,sann,,,,700,,Vinje,"4036"
NSR:StopPlace:20280,20280,Hommostøylen,59.601665,8.020011,,sann,,,,700,,Vinje,"4036"
NSR:StopPlace:20299,20299,Hovet kryss,59.800313,8.263411,,sann,,,,700,,Vinje,"4036"
NSR:StopPlace:20324,20324,Midtbø,59.588798,7.916851,,sann,,,,700,,Vinje,"4036"
NSR:StopPlace:20325,20325,Hylland,59.587836,8.009052,,sann,,,,700,,Vinje,"4036"
NSR:StopPlace:20328,20328,Hylland kryss,59.582487,8.00797,,sann,,,,700,,Vinje,"4036"
NSR:StopPlace:20331,20331,Hyllandsfoss,59.580953,8.000942,,sann,,,,700,,Vinje,"4036"
NSR:StopPlace:20344,20344,Mjonøy,59.634098,7.801132,,sann,,,,700,,Vinje,"4036"
NSR:StopPlace:20349,20349,Garatun,59.698653,8.108809,,sann,,,,700,,Vinje,"4036"
NSR:StopPlace:20363,20363,Garvoll,59.692826,8.112178,,sann,,,,700,,Vinje,"4036"
NSR:StopPlace:20378,20378,Mogane,59.675365,7.810778,,sann,,,,700,,Vinje,"4036"
NSR:StopPlace:20411,20411,Morenetaket,59.804579,8.272268,,sann,,,,700,,Vinje,"4036"
NSR:StopPlace:20533,20533,Aksvik,59.711093,7.924348,,sann,,,,700,,Vinje,"4036"
NSR:StopPlace:20548,20548,Arabu,59.77425,8.212256,,sann,,,,700,,Vinje,"4036"
NSR:StopPlace:20550,20550,Arabygdi,59.77621,7.723679,,sann,,,,700,,Vinje,"4036"
NSR:StopPlace:20582,20582,Kvøven,59.781561,7.663922,,sann,,,,700,,Vinje,"4036"
NSR:StopPlace:20610,20610,Landsverk,59.683267,8.055594,,sann,,,,700,,Vinje,"4036"
NSR:StopPlace:20611,20611,Austbø,59.693164,8.105552,,sann,,,,700,,Vinje,"4036"
NSR:StopPlace:20616,20616,Neset,59.794534,8.138174,,sann,,,,700,,Vinje,"4036"
NSR:StopPlace:20627,20627,Nesland kryss,59.670945,8.054969,,sann,,,,700,,Vinje,"4036"
NSR:StopPlace:20630,20630,Nesland kyrkje,59.522053,7.984628,,sann,,,,700,,Vinje,"4036"
NSR:StopPlace:20707,20707,Bekkhus,59.631947,8.202468,,sann,,,,700,,Vinje,"4036"
NSR:StopPlace:20748,20748,Lie,59.603069,7.898951,,sann,,,,700,,Vinje,"4036"
NSR:StopPlace:20763,20763,Ligrend,59.503282,7.971935,,sann,,,,700,,Vinje,"4036"
NSR:StopPlace:20812,20812,Nykås,59.662749,8.038925,,sann,,,,700,,Vinje,"4036"
NSR:StopPlace:20823,20823,Nystaul,59.820258,8.121281,,sann,,,,700,,Vinje,"4036"
NSR:StopPlace:20846,20846,Johnsen,59.627054,7.803346,,sann,,,,700,,Vinje,"4036"
NSR:StopPlace:20881,20881,Kaldråstøyl,59.705809,7.784943,,sann,,,,700,,Vinje,"4036"
NSR:StopPlace:20911,20911,Bossbøen,59.76102,8.246209,,sann,,,,700,,Vinje,"4036"
NSR:StopPlace:20924,20924,Botn,59.769875,7.409805,,sann,,,,700,,Vinje,"4036"
NSR:StopPlace:20943,20943,Brattås,59.74352,8.240822,,sann,,,,700,,Vinje,"4036"
NSR:StopPlace:20951,20951,Killingtveit,59.708783,7.902975,,sann,,,,700,,Vinje,"4036"
NSR:StopPlace:20972,20972,Brekke,59.651998,8.192892,,sann,,,,700,,Vinje,"4036"
NSR:StopPlace:20993,20993,Plassane,59.566623,8.005391,,sann,,,,700,,Vinje,"4036"
NSR:StopPlace:21021,21021,Brufloti,59.739908,7.586288,,sann,,,,700,,Vinje,"4036"
NSR:StopPlace:21053,21053,Bråstøyl,59.688122,7.813224,,sann,,,,700,,Vinje,"4036"
NSR:StopPlace:21102,21102,Tveiten,59.730656,7.651559,,sann,,,,700,,Vinje,"4036"
NSR:StopPlace:21105,21105,Bygdevegen,59.744366,7.577991,,sann,,,,700,,Vinje,"4036"
NSR:StopPlace:21124,21124,Versto,59.628213,8.01524,,sann,,,,700,,Vinje,"4036"
NSR:StopPlace:21136,21136,Tveito,59.574835,7.949207,,sann,,,,700,,Vinje,"4036"
NSR:StopPlace:21160,21160,Kostveit,59.672363,7.973558,,sann,,,,700,,Vinje,"4036"
NSR:StopPlace:21162,21162,Kostveit kryss,59.644881,8.017029,,sann,,,,700,,Vinje,"4036"
NSR:StopPlace:21169,21169,Bøgrend,59.616341,7.878887,,sann,,,,700,,Vinje,"4036"
NSR:StopPlace:21197,21197,Surgrav,59.573406,7.97745,,sann,,,,700,,Vinje,"4036"
NSR:StopPlace:21233,21233,Urdbø,59.780567,7.697106,,sann,,,,700,,Vinje,"4036"
NSR:StopPlace:21277,21277,Særensgrend,59.586497,7.922642,,sann,,,,700,,Vinje,"4036"
NSR:StopPlace:21289,21289,Skålestrondi,59.660138,8.03521,,sann,,,,700,,Vinje,"4036"
NSR:StopPlace:21327,21327,Tansosen,59.666353,8.059496,,sann,,,,700,,Vinje,"4036"
NSR:StopPlace:21342,21342,Smørklepp,59.63941,7.80062,,sann,,,,700,,Vinje,"4036"
NSR:StopPlace:21371,21371,Varbø,59.825052,8.116429,,sann,,,,700,,Vinje,"4036"
NSR:StopPlace:21379,21379,Varland,59.83407,8.104332,,sann,,,,700,,Vinje,"4036"
NSR:StopPlace:21384,21384,Varland kryss,59.77091,8.229902,,sann,,,,700,,Vinje,"4036"
NSR:StopPlace:21404,21404,Tjønndalen,59.775048,7.646797,,sann,,,,700,,Vinje,"4036"
NSR:StopPlace:21405,21405,Vasshus,59.676728,8.037682,,sann,,,,700,,Vinje,"4036"
NSR:StopPlace:21409,21409,Tjønnegrend,59.620825,7.996175,,sann,,,,700,,Vinje,"4036"
NSR:StopPlace:21410,21410,Vasslaus,59.587224,8.19417,,sann,,,,700,,Vinje,"4036"
NSR:StopPlace:21411,21411,Songa kryss,59.765744,7.580324,,sann,,,,700,,Vinje,"4036"
NSR:StopPlace:21412,21412,Tjønnegrend kryss,59.621368,8.018217,,sann,,,,700,,Vinje,"4036"
NSR:StopPlace:21461,21461,Vehus,59.633027,8.018033,,sann,,,,700,,Vinje,"4036"
NSR:StopPlace:21472,21472,Velemoen,59.733062,7.613399,,sann,,,,700,,Vinje,"4036"
NSR:StopPlace:21473,21473,Torvetjønn,59.75082,8.20165,,sann,,,,700,,Vinje,"4036"
NSR:StopPlace:21486,21486,Venemo,59.756559,7.56766,,sann,,,,700,,Vinje,"4036"
NSR:StopPlace:21498,21498,Trovassli kryss,59.58216,8.190959,,sann,,,,700,,Vinje,"4036"
NSR:StopPlace:21519,21519,Vinjar,59.62083,7.830576,,sann,,,,700,,Vinje,"4036"
NSR:StopPlace:21522,21522,Vinje kyrkje,59.61905,7.843959,,sann,,,,700,,Vinje,"4036"
NSR:StopPlace:21524,21524,Vinjehuset,59.573025,7.991024,,sann,,,,700,,Vinje,"4036"
NSR:StopPlace:21527,21527,Vinjesvingen,59.622658,7.811966,,sann,,,,700,,Vinje,"4036"
NSR:StopPlace:21565,21565,Straume,59.617205,8.196858,,sann,,,,700,,Vinje,"4036"
NSR:StopPlace:21581,21581,Vå,59.746383,7.839586,,sann,,,,700,,Vinje,"4036"
NSR:StopPlace:21586,21586,Vågslidtun,59.769756,7.388281,,sann,,,,700,,Vinje,"4036"
NSR:StopPlace:21587,21587,Vierli,59.746308,8.171425,,sann,,,,700,,Vinje,"4036"
NSR:StopPlace:21643,21643,Åmot Vinje Kro,59.57009,7.99224,,sann,,,,700,,Vinje,"4036"
NSR:StopPlace:21697,21697,Øverland,59.718422,7.723737,,sann,,,,700,,Vinje,"4036"
NSR:StopPlace:21708,21708,Øyfjell oppvekstsenter,59.574858,8.188967,,sann,,,,700,,Vinje,"4036"
NSR:StopPlace:21710,21710,Øygarden,59.665989,8.193925,,sann,,,,700,,Vinje,"4036"
NSR:StopPlace:58431,58431,Austbø Hotel,59.69047,8.094531,,sann,,,,700,,Vinje,"4036"
NSR:StopPlace:58432,58432,Rauland skule,59.693915,8.064187,,sann,,,,700,,Vinje,"4036"
NSR:StopPlace:58437,58437,Sundovli,59.586,8.133689,,sann,,,,700,,Vinje,"4036"
NSR:StopPlace:59924,59924,Haugtjønn,59.604161,8.246458,,sann,,,,700,,Vinje,"4036"
NSR:StopPlace:59925,59925,Drivarbekk,59.607063,8.232056,,sann,,,,700,,Vinje,"4036"
NSR:StopPlace:59926,59926,Neslandsvegen,59.696558,8.053102,,sann,,,,700,,Vinje,"4036"
NSR:StopPlace:60238,60238,Kvåmmi,59.715383,7.974677,,sann,,,,700,,Vinje,"4036"
NSR:StopPlace:60242,60242,Sudbøvegen,59.58345,8.161138,,sann,,,,700,,Vinje,"4036"
NSR:StopPlace:60815,60815,Hovdestad,59.557423,7.987272,,sann,,,,700,,Vinje,"4036"
NSR:StopPlace:60816,60816,Tveitodam,59.570468,7.963924,,sann,,,,700,,Vinje,"4036"
NSR:StopPlace:60818,60818,Heimestøyl,59.723124,7.868654,,sann,,,,700,,Vinje,"4036"
NSR:StopPlace:60836,60836,Vågslid Viki,59.768173,7.367655,,sann,,,,700,,Vinje,"4036"
NSR:StopPlace:60842,60842,Dyrdal,59.623401,8.200147,,sann,,,,700,,Vinje,"4036"
NSR:StopPlace:61504,61504,Steinstad,59.767244,7.762164,,sann,,,,700,,Vinje,"4036"
NSR:StopPlace:61505,61505,Sandviki Totakvegen,59.758227,7.785396,,sann,,,,700,,Vinje,"4036"
NSR:StopPlace:61898,61898,Hombrekk,59.614885,8.260575,,sann,,,,700,,Vinje,"4036"
NSR:StopPlace:62155,62155,Vådalen,59.743826,7.845376,,sann,,,,700,,Vinje,"4036"
NSR:StopPlace:62159,62159,Rauland kyrkje,59.719115,8.0014,,sann,,,,700,,Vinje,"4036"
NSR:StopPlace:62160,62160,Tingvoll,59.698655,8.047649,,sann,,,,700,,Vinje,"4036"
NSR:StopPlace:62161,62161,Angravli,59.751018,8.191389,,sann,,,,700,,Vinje,"4036"
NSR:StopPlace:62169,62169,Verkstadvegen,59.567847,7.994179,,sann,,,,700,,Vinje,"4036"
NSR:StopPlace:62175,62175,Furulund,59.694425,8.079833,,sann,,,,700,,Vinje,"4036"
NSR:StopPlace:62205,62205,Gravastøyl,59.636623,7.977794,,sann,,,,700,,Vinje,"4036"
NSR:StopPlace:62734,62734,Teisberg,59.585799,8.124966,,sann,,,,700,,Vinje,"4036"
NSR:StopPlace:62792,62792,Aratun,59.776398,8.229854,,sann,,,,700,,Vinje,"4036"
NSR:StopPlace:62806,62806,Harkjellstaulvegen,59.712349,8.026859,,sann,,,,700,,Vinje,"4036"
NSR:StopPlace:19548,19548,Dammen,59.789386,9.102873,,sann,,,,700,,Tinn,"4026"
NSR:StopPlace:19614,19614,Rjukan baptistkirke,59.879233,8.601129,,sann,,,,700,,Tinn,"4026"
NSR:StopPlace:19615,19615,Rjukan fjellstue,59.85549,8.443488,,sann,,,,700,,Tinn,"4026"
NSR:StopPlace:19617,19617,Rjukan kirke,59.879406,8.60586,,sann,,,,700,,Tinn,"4026"
NSR:StopPlace:19619,19619,Rjukan politistasjon,59.878437,8.589737,,sann,,,,700,,Tinn,"4026"
NSR:StopPlace:19620,19620,Rjukan rutebilstasjon,59.877484,8.585899,,sann,,,,700,,Tinn,"4026"
NSR:StopPlace:19622,19622,Rjukan senter,59.878337,8.586762,,sann,,,,700,,Tinn,"4026"
NSR:StopPlace:19623,19623,Rjukan torg,59.8789,8.594114,,sann,,,,700,,Tinn,"4026"
NSR:StopPlace:19655,19655,Rue,59.889186,9.028018,,sann,,,,700,,Tinn,"4026"
NSR:StopPlace:19717,19717,Rønningen,59.878536,8.544022,,sann,,,,700,,Tinn,"4026"
NSR:StopPlace:19741,19741,Gunleiksrud,60.133696,8.647603,,sann,,,,700,,Tinn,"4026"
NSR:StopPlace:19797,19797,Sandvann,59.805011,9.083945,,sann,,,,700,,Tinn,"4026"
NSR:StopPlace:19802,19802,Sandviken,59.989196,8.815152,,sann,,,,700,,Tinn,"4026"
NSR:StopPlace:19831,19831,Gøynes,59.963054,8.817328,,sann,,,,700,,Tinn,"4026"
NSR:StopPlace:19838,19838,Hafoss,59.949856,8.907031,,sann,,,,700,,Tinn,"4026"
NSR:StopPlace:19846,19846,Espeset,59.912664,9.009119,,sann,,,,700,,Tinn,"4026"
NSR:StopPlace:19848,19848,Espeset bru,59.903507,9.0134,,sann,,,,700,,Tinn,"4026"
NSR:StopPlace:19869,19869,Hydroparken kryss,59.879289,8.575309,,sann,,,,700,,Tinn,"4026"
NSR:StopPlace:19878,19878,Fagerstrand,59.935553,8.80625,,sann,,,,700,,Tinn,"4026"
NSR:StopPlace:19883,19883,Sigurdsrud,59.977834,8.771706,,sann,,,,700,,Tinn,"4026"
NSR:StopPlace:19932,19932,Sjøfarten,59.980104,8.759429,,sann,,,,700,,Tinn,"4026"
NSR:StopPlace:19944,19944,Skarfosshøgda,59.848193,8.424371,,sann,,,,700,,Tinn,"4026"
NSR:StopPlace:19957,19957,Skavlebø,60.136932,8.638612,,sann,,,,700,,Tinn,"4026"
NSR:StopPlace:19960,19960,Skibakkesletta,59.879904,8.622035,,sann,,,,700,,Tinn,"4026"
NSR:StopPlace:19997,19997,Skinnarbu,59.816161,8.312771,,sann,,,,700,,Tinn,"4026"
NSR:StopPlace:20001,20001,Fjellkirken,59.828651,8.350027,,sann,,,,700,,Tinn,"4026"
NSR:StopPlace:20005,20005,Skjeiesletta,59.984201,8.741031,,sann,,,,700,,Tinn,"4026"
NSR:StopPlace:20007,20007,Fjellrud,60.091535,8.761513,,sann,,,,700,,Tinn,"4026"
NSR:StopPlace:20029,20029,Fjellvang,60.121359,8.70931,,sann,,,,700,,Tinn,"4026"
NSR:StopPlace:20102,20102,Flekkebyen,59.879187,8.569411,,sann,,,,700,,Tinn,"4026"
NSR:StopPlace:20131,20131,Flåto,59.89765,9.019411,,sann,,,,700,,Tinn,"4026"
NSR:StopPlace:20149,20149,Heslevika,59.927223,8.854313,,sann,,,,700,,Tinn,"4026"
NSR:StopPlace:20174,20174,Hjelgjord,59.990375,8.834864,,sann,,,,700,,Tinn,"4026"
NSR:StopPlace:20180,20180,Fosso skole,59.825442,9.063418,,sann,,,,700,,Tinn,"4026"
NSR:StopPlace:20182,20182,Luråsgrend,60.057556,8.803138,,sann,,,,700,,Tinn,"4026"
NSR:StopPlace:20191,20191,Lyngflot,59.918008,8.869574,,sann,,,,700,,Tinn,"4026"
NSR:StopPlace:20263,20263,Frøystaul øvre,59.827072,8.343255,,sann,,,,700,,Tinn,"4026"
NSR:StopPlace:20302,20302,Hovin sentrum,59.851709,9.029844,,sann,,,,700,,Tinn,"4026"
NSR:StopPlace:20333,20333,Miland indre,59.9251,8.753823,,sann,,,,700,,Tinn,"4026"
NSR:StopPlace:20336,20336,Håkanes,59.937998,8.839636,,sann,,,,700,,Tinn,"4026"
NSR:StopPlace:20337,20337,Miland,59.924162,8.754934,,sann,,,,700,,Tinn,"4026"
NSR:StopPlace:20377,20377,Gaustadjordet,59.909434,8.718744,,sann,,,,700,,Tinn,"4026"
NSR:StopPlace:20398,20398,Moldbrekke,59.942387,8.911768,,sann,,,,700,,Tinn,"4026"
NSR:StopPlace:20426,20426,Høyseth,59.865114,9.029303,,sann,,,,700,,Tinn,"4026"
NSR:StopPlace:20455,20455,Ingolfsland,59.879054,8.614439,,sann,,,,700,,Tinn,"4026"
NSR:StopPlace:20486,20486,Granlund,60.065573,8.780706,,sann,,,,700,,Tinn,"4026"
NSR:StopPlace:20509,20509,Krokan,59.866698,8.473972,,sann,,,,700,,Tinn,"4026"
NSR:StopPlace:20511,20511,Mår,59.884696,8.68185,,sann,,,,700,,Tinn,"4026"
NSR:StopPlace:20514,20514,Mårem,59.995669,8.748074,,sann,,,,700,,Tinn,"4026"
NSR:StopPlace:20517,20517,Mårvik,59.991642,8.760575,,sann,,,,700,,Tinn,"4026"
NSR:StopPlace:20521,20521,Mæl rasteplass,59.926435,8.799815,,sann,,,,700,,Tinn,"4026"
NSR:StopPlace:20523,20523,Krosso,59.878841,8.556531,,sann,,,,700,,Tinn,"4026"
NSR:StopPlace:20524,20524,Mæl sentrum,59.924484,8.800923,,sann,,,,700,,Tinn,"4026"
NSR:StopPlace:20526,20526,Krosso øvre,59.878458,8.553092,,sann,,,,700,,Tinn,"4026"
NSR:StopPlace:20563,20563,Møsvassdammen,59.82275,8.319315,,sann,,,,700,,Tinn,"4026"
NSR:StopPlace:20586,20586,Atrå,59.991765,8.744087,,sann,,,,700,,Tinn,"4026"
NSR:StopPlace:20589,20589,Atrå samfunnshus,59.988658,8.736498,,sann,,,,700,,Tinn,"4026"
NSR:StopPlace:20592,20592,Atrå skole,59.987126,8.736462,,sann,,,,700,,Tinn,"4026"
NSR:StopPlace:20609,20609,Austbygde,59.995522,8.826756,,sann,,,,700,,Tinn,"4026"
NSR:StopPlace:20619,20619,Neset,59.949226,8.825208,,sann,,,,700,,Tinn,"4026"
NSR:StopPlace:20636,20636,Bakkå kryss,59.995455,8.838884,,sann,,,,700,,Tinn,"4026"
NSR:StopPlace:20692,20692,Baugerud,59.841523,8.406276,,sann,,,,700,,Tinn,"4026"
NSR:StopPlace:20720,20720,Lerirhammar,59.973273,8.79338,,sann,,,,700,,Tinn,"4026"
NSR:StopPlace:20752,20752,Bergskog,59.930021,8.928862,,sann,,,,700,,Tinn,"4026"
NSR:StopPlace:20811,20811,Bjørkhaug,59.880864,8.640453,,sann,,,,700,,Tinn,"4026"
NSR:StopPlace:20814,20814,Bjørkhaugbakken,59.880845,8.634714,,sann,,,,700,,Tinn,"4026"
NSR:StopPlace:20816,20816,Nyland,59.894404,8.698703,,sann,,,,700,,Tinn,"4026"
NSR:StopPlace:20845,20845,Nøstegard,59.986541,8.733442,,sann,,,,700,,Tinn,"4026"
NSR:StopPlace:20868,20868,Juvsjø,59.969642,8.871245,,sann,,,,700,,Tinn,"4026"
NSR:StopPlace:20884,20884,Kalskås,59.966303,8.812323,,sann,,,,700,,Tinn,"4026"
NSR:StopPlace:20887,20887,Kalsrud,60.108191,8.737926,,sann,,,,700,,Tinn,"4026"
NSR:StopPlace:20899,20899,Olesrud,60.119127,8.715417,,sann,,,,700,,Tinn,"4026"
NSR:StopPlace:20919,20919,Oppbygdi,59.874245,9.030553,,sann,,,,700,,Tinn,"4026"
NSR:StopPlace:20990,20990,Pile,59.990618,8.844498,,sann,,,,700,,Tinn,"4026"
NSR:StopPlace:21073,21073,Bubekk,59.959495,8.888749,,sann,,,,700,,Tinn,"4026"
NSR:StopPlace:21101,21101,Buvrud,59.970662,8.801808,,sann,,,,700,,Tinn,"4026"
NSR:StopPlace:21127,21127,Tveito,59.88043,8.626946,,sann,,,,700,,Tinn,"4026"
NSR:StopPlace:21149,21149,Tvergrot,59.88157,8.6632,,sann,,,,700,,Tinn,"4026"
NSR:StopPlace:21226,21226,Dale Austbygd,60.049059,8.81778,,sann,,,,700,,Tinn,"4026"
NSR:StopPlace:21228,21228,Dale Bakhus,59.88795,8.68999,,sann,,,,700,,Tinn,"4026"
NSR:StopPlace:21236,21236,Dalelia,59.883646,8.676897,,sann,,,,700,,Tinn,"4026"
NSR:StopPlace:21261,21261,Utsikten,59.975677,8.857435,,sann,,,,700,,Tinn,"4026"
NSR:StopPlace:21346,21346,Tessungdalen landhandel,60.125491,8.684829,,sann,,,,700,,Tinn,"4026"
NSR:StopPlace:21366,21366,Solbring,59.9893,8.775156,,sann,,,,700,,Tinn,"4026"
NSR:StopPlace:21422,21422,Vatnalid,59.914859,8.984357,,sann,,,,700,,Tinn,"4026"
NSR:StopPlace:21423,21423,Spånem,60.074431,8.771459,,sann,,,,700,,Tinn,"4026"
NSR:StopPlace:21460,21460,Gullsmedhagen,59.902691,8.707591,,sann,,,,700,,Tinn,"4026"
NSR:StopPlace:21485,21485,Steinsrud,59.923006,8.953251,,sann,,,,700,,Tinn,"4026"
NSR:StopPlace:21531,21531,Veset,59.878456,8.51643,,sann,,,,700,,Tinn,"4026"
NSR:StopPlace:21548,21548,Strand,59.9581,8.824554,,sann,,,,700,,Tinn,"4026"
NSR:StopPlace:21583,21583,Våer,59.876057,8.496983,,sann,,,,700,,Tinn,"4026"
NSR:StopPlace:21588,21588,Strøm,59.89979,8.704696,,sann,,,,700,,Tinn,"4026"
NSR:StopPlace:21615,21615,Støtta,59.922369,8.741424,,sann,,,,700,,Tinn,"4026"
NSR:StopPlace:21696,21696,Øverland,59.881444,8.651866,,sann,,,,700,,Tinn,"4026"
NSR:StopPlace:58433,58433,Møsvatn Fjellpark,59.813546,8.29633,,sann,,,,700,,Tinn,"4026"
NSR:StopPlace:58577,58577,Tinn museum,59.88099,8.64785,,sann,,,,700,,Tinn,"4026"
NSR:StopPlace:58578,58578,Gaustå,59.914689,8.724668,,sann,,,,700,,Tinn,"4026"
NSR:StopPlace:58579,58579,Tinn Montessoriskole,60.047908,8.818599,,sann,,,,700,,Tinn,"4026"
NSR:StopPlace:58580,58580,Austbygde kirke,60.02891,8.82671,,sann,,,,700,,Tinn,"4026"
NSR:StopPlace:59414,59414,Rjukan ungdomsskole,59.880168,8.630777,,sann,,,,700,,Tinn,"4026"
NSR:StopPlace:60161,60161,Rjukan barneskole,59.879558,8.617071,,sann,,,,700,,Tinn,"4026"
NSR:StopPlace:60247,60247,Grønskei,59.929254,8.773604,,sann,,,,700,,Tinn,"4026"
NSR:StopPlace:60248,60248,Sanden,59.929339,8.786406,,sann,,,,700,,Tinn,"4026"
NSR:StopPlace:60249,60249,Rollagvegen,59.922076,8.776124,,sann,,,,700,,Tinn,"4026"
NSR:StopPlace:60714,60714,Moåsen,59.99255,8.820753,,sann,,,,700,,Tinn,"4026"
NSR:StopPlace:60862,60862,Ådalen,60.012719,8.837314,,sann,,,,700,,Tinn,"4026"
NSR:StopPlace:61154,61154,Rjukan videregående skole,59.877879,8.582818,,sann,,,,700,,Tinn,"4026"
NSR:StopPlace:61491,61491,Milandvegen,59.932178,8.801696,,sann,,,,700,,Tinn,"4026"
NSR:StopPlace:62163,62163,Nørstebø,60.127737,8.677316,,sann,,,,700,,Tinn,"4026"
NSR:StopPlace:63855,63855,Jonsjordvegen,60.042056,8.822888,,sann,,,,700,,Tinn,"4026"
NSR:StopPlace:61266,61266,Hydroparken kryss,59.878807,8.575746,sør for fabrikkbrua,sann,,,,700,,Tinn,"4026"
NSR:StopPlace:19714,19714,Eidet,59.228613,9.87398,,sann,,,,700,,Siljan,"4010"
NSR:StopPlace:19775,19775,Gurholtveien,59.279321,9.733951,,sann,,,,700,,Siljan,"4010"
NSR:StopPlace:19792,19792,Sandtaksvingen,59.272914,9.720712,,sann,,,,700,,Siljan,"4010"
NSR:StopPlace:19890,19890,Siljan bibliotek,59.285098,9.730098,,sann,,,,700,,Siljan,"4010"
NSR:StopPlace:19896,19896,Siljan skole,59.28268,9.733071,,sann,,,,700,,Siljan,"4010"
NSR:StopPlace:19901,19901,Siljansenteret,59.277652,9.727359,,sann,,,,700,,Siljan,"4010"
NSR:StopPlace:19903,19903,Haugenkrysset,59.263016,9.754217,,sann,,,,700,,Siljan,"4010"
NSR:StopPlace:19951,19951,Skauen,59.265002,9.695445,,sann,,,,700,,Siljan,"4010"
NSR:StopPlace:20057,20057,Heivannet,59.258276,9.680068,,sann,,,,700,,Siljan,"4010"
NSR:StopPlace:20213,20213,Hogstad,59.320657,9.666441,,sann,,,,700,,Siljan,"4010"
NSR:StopPlace:20259,20259,Holtesletta,59.274157,9.702115,,sann,,,,700,,Siljan,"4010"
NSR:StopPlace:20262,20262,Holtesletta syd,59.270481,9.701894,,sann,,,,700,,Siljan,"4010"
NSR:StopPlace:20321,20321,Midtbygda skole,59.271595,9.709176,,sann,,,,700,,Siljan,"4010"
NSR:StopPlace:20388,20388,Moholt,59.233757,9.824146,,sann,,,,700,,Siljan,"4010"
NSR:StopPlace:20397,20397,Høisetbakkane,59.275068,9.708905,,sann,,,,700,,Siljan,"4010"
NSR:StopPlace:20400,20400,Høisethbrua,59.287913,9.705847,,sann,,,,700,,Siljan,"4010"
NSR:StopPlace:20483,20483,Gonsholt,59.258204,9.761196,,sann,,,,700,,Siljan,"4010"
NSR:StopPlace:20603,20603,Austad,59.244668,9.783571,,sann,,,,700,,Siljan,"4010"
NSR:StopPlace:20916,20916,Opdalen,59.314742,9.657192,,sann,,,,700,,Siljan,"4010"
NSR:StopPlace:20973,20973,Kiste,59.238026,9.799912,,sann,,,,700,,Siljan,"4010"
NSR:StopPlace:20976,20976,Kiste bru,59.240227,9.804222,,sann,,,,700,,Siljan,"4010"
NSR:StopPlace:21118,21118,Kløverød,59.293578,9.69055,,sann,,,,700,,Siljan,"4010"
NSR:StopPlace:21288,21288,Sølland,59.312432,9.658436,,sann,,,,700,,Siljan,"4010"
NSR:StopPlace:21357,21357,Thorshaug,59.275491,9.722217,,sann,,,,700,,Siljan,"4010"
NSR:StopPlace:21361,21361,Snurråsen,59.288133,9.714097,,sann,,,,700,,Siljan,"4010"
NSR:StopPlace:21401,21401,Solvika,59.262037,9.689216,,sann,,,,700,,Siljan,"4010"
NSR:StopPlace:58606,58606,Siljan knutepunkt,59.278732,9.725425,,sann,,,,700,,Siljan,"4010"
NSR:StopPlace:62545,62545,Tudal,59.271336,9.727331,,sann,,,,700,,Siljan,"4010"
NSR:StopPlace:62546,62546,Engelstad,59.265955,9.735914,,sann,,,,700,,Siljan,"4010"
NSR:StopPlace:19675,19675,Dålån,59.696865,8.864477,,sann,,,,700,,Hjartdal,"4024"
NSR:StopPlace:19678,19678,Grusholet,59.625242,8.941863,,sann,,,,700,,Hjartdal,"4024"
NSR:StopPlace:19703,19703,Røgndalskleiva,59.690684,8.872881,,sann,,,,700,,Hjartdal,"4024"
NSR:StopPlace:19779,19779,Gvammen,59.602515,8.704489,,sann,,,,700,,Hjartdal,"4024"
NSR:StopPlace:19847,19847,Sauland Løvheim,59.613557,8.947852,,sann,,,,700,,Hjartdal,"4024"
NSR:StopPlace:19849,19849,Sauland kyrkje,59.620333,8.926951,,sann,,,,700,,Hjartdal,"4024"
NSR:StopPlace:19851,19851,Sauland skule,59.619984,8.930676,,sann,,,,700,,Hjartdal,"4024"
NSR:StopPlace:19973,19973,Finnebråten,59.615594,8.790061,,sann,,,,700,,Hjartdal,"4024"
NSR:StopPlace:20050,20050,Skorve bru,59.61855,8.860179,,sann,,,,700,,Hjartdal,"4024"
NSR:StopPlace:20096,20096,Lonar,59.621279,8.799782,,sann,,,,700,,Hjartdal,"4024"
NSR:StopPlace:20098,20098,Lonar post,59.62052,8.824801,,sann,,,,700,,Hjartdal,"4024"
NSR:StopPlace:20119,20119,Flugon,59.743537,8.83459,,sann,,,,700,,Hjartdal,"4024"
NSR:StopPlace:20161,20161,Fosse,59.601364,9.000567,,sann,,,,700,,Hjartdal,"4024"
NSR:StopPlace:20170,20170,Hjartdal Nordbø,59.600027,8.656594,,sann,,,,700,,Hjartdal,"4024"
NSR:StopPlace:20171,20171,Fossen kro,59.611195,8.998398,,sann,,,,700,,Hjartdal,"4024"
NSR:StopPlace:20221,20221,Holm,59.604405,8.637592,,sann,,,,700,,Hjartdal,"4024"
NSR:StopPlace:20359,20359,Høgetveit,59.597718,8.625974,,sann,,,,700,,Hjartdal,"4024"
NSR:StopPlace:20428,20428,Mosebø,59.620826,8.917532,,sann,,,,700,,Hjartdal,"4024"
NSR:StopPlace:20538,20538,Ambjørndalen,59.58997,8.601213,,sann,,,,700,,Hjartdal,"4024"
NSR:StopPlace:20709,20709,Bekkhuskrysset,59.704879,8.860251,,sann,,,,700,,Hjartdal,"4024"
NSR:StopPlace:20740,20740,Lia,59.596916,9.01665,,sann,,,,700,,Hjartdal,"4024"
NSR:StopPlace:20767,20767,Betel,59.600212,8.682393,,sann,,,,700,,Hjartdal,"4024"
NSR:StopPlace:20862,20862,Joret,59.618735,8.932554,,sann,,,,700,,Hjartdal,"4024"
NSR:StopPlace:20873,20873,Bondal snikkarverkstad,59.73776,8.840071,,sann,,,,700,,Hjartdal,"4024"
NSR:StopPlace:20879,20879,Kaffihaugen,59.677335,8.869182,,sann,,,,700,,Hjartdal,"4024"
NSR:StopPlace:20912,20912,Omnesfossen,59.610865,8.992366,,sann,,,,700,,Hjartdal,"4024"
NSR:StopPlace:20967,20967,Brekka,59.623087,8.900493,,sann,,,,700,,Hjartdal,"4024"
NSR:StopPlace:21003,21003,Tuddal skule,59.755911,8.787212,,sann,,,,700,,Hjartdal,"4024"
NSR:StopPlace:21018,21018,Brudalsbrekka,59.587205,8.584411,,sann,,,,700,,Hjartdal,"4024"
NSR:StopPlace:21032,21032,Tute,59.605638,8.730497,,sann,,,,700,,Hjartdal,"4024"
NSR:StopPlace:21098,21098,Tveiten,59.609108,8.760458,,sann,,,,700,,Hjartdal,"4024"
NSR:StopPlace:21164,21164,Bøe,59.619557,8.945173,,sann,,,,700,,Hjartdal,"4024"
NSR:StopPlace:21166,21166,Bøen,59.755407,8.789718,,sann,,,,700,,Hjartdal,"4024"
NSR:StopPlace:21294,21294,Sønderland,59.733931,8.840035,,sann,,,,700,,Hjartdal,"4024"
NSR:StopPlace:21297,21297,Skårnes,59.619648,8.845105,,sann,,,,700,,Hjartdal,"4024"
NSR:StopPlace:21300,21300,Skårnesmoen,59.600026,8.663877,,sann,,,,700,,Hjartdal,"4024"
NSR:StopPlace:21314,21314,Sletta,59.74704,8.815793,,sann,,,,700,,Hjartdal,"4024"
NSR:StopPlace:21333,21333,Teigen,59.622524,8.808625,,sann,,,,700,,Hjartdal,"4024"
NSR:StopPlace:21348,21348,Tho-leet,59.592843,8.617362,,sann,,,,700,,Hjartdal,"4024"
NSR:StopPlace:21375,21375,Varelageret,59.617128,8.937408,,sann,,,,700,,Hjartdal,"4024"
NSR:StopPlace:21402,21402,Tjønndalen,59.60912,8.766578,,sann,,,,700,,Hjartdal,"4024"
NSR:StopPlace:21512,21512,Tuddal handelslag,59.751167,8.798313,,sann,,,,700,,Hjartdal,"4024"
NSR:StopPlace:21554,21554,Strandli,59.606395,8.742097,,sann,,,,700,,Hjartdal,"4024"
NSR:StopPlace:21607,21607,Stålen,59.631377,8.941975,,sann,,,,700,,Hjartdal,"4024"
NSR:StopPlace:21642,21642,Slåkestad,59.610619,8.956647,,sann,,,,700,,Hjartdal,"4024"
NSR:StopPlace:21702,21702,Øvstebø,59.62979,8.943557,,sann,,,,700,,Hjartdal,"4024"
NSR:StopPlace:21707,21707,Øyen,59.619642,8.874971,,sann,,,,700,,Hjartdal,"4024"
NSR:StopPlace:21711,21711,Øygardsjordet,59.610266,8.962634,,sann,,,,700,,Hjartdal,"4024"
NSR:StopPlace:21715,21715,Øystul,59.71865,8.850203,,sann,,,,700,,Hjartdal,"4024"
NSR:StopPlace:60665,60665,Gvammen knutepunkt,59.603215,8.714327,,sann,,,,700,,Hjartdal,"4024"
NSR:StopPlace:19652,19652,Rue,59.545815,8.610528,,sann,,,,700,,Seljord,"4022"
NSR:StopPlace:19670,19670,Dyrlandsdalen,59.603647,8.442428,,sann,,,,700,,Seljord,"4022"
NSR:StopPlace:19711,19711,Rønjom kryss,59.626096,8.410012,,sann,,,,700,,Seljord,"4022"
NSR:StopPlace:19785,19785,Sanden Camping,59.455756,8.730211,,sann,,,,700,,Seljord,"4022"
NSR:StopPlace:19789,19789,Sandsdalen,59.472423,8.661895,,sann,,,,700,,Seljord,"4022"
NSR:StopPlace:19809,19809,Garvik kryss,59.477166,8.632752,,sann,,,,700,,Seljord,"4022"
NSR:StopPlace:19837,19837,Satajuvet,59.506878,8.645084,,sann,,,,700,,Seljord,"4022"
NSR:StopPlace:19859,19859,Seljord kyrkje,59.489576,8.637357,,sann,,,,700,,Seljord,"4022"
NSR:StopPlace:19862,19862,Seljord sentrum,59.482447,8.623069,,sann,,,,700,,Seljord,"4022"
NSR:StopPlace:19864,19864,Seljord skule,59.482571,8.622277,,sann,,,,700,,Seljord,"4022"
NSR:StopPlace:19884,19884,Haugan leet,59.64291,8.348672,,sann,,,,700,,Seljord,"4022"
NSR:StopPlace:19914,19914,Sion,59.569848,8.566066,,sann,,,,700,,Seljord,"4022"
NSR:StopPlace:19919,19919,Fellesfjoset,59.550325,8.597665,,sann,,,,700,,Seljord,"4022"
NSR:StopPlace:19937,19937,Brekke søndre,59.585907,8.567959,,sann,,,,700,,Seljord,"4022"
NSR:StopPlace:20076,20076,Flatdal bensin,59.561863,8.576138,,sann,,,,700,,Seljord,"4022"
NSR:StopPlace:20080,20080,Flatdal bru,59.56497,8.572902,,sann,,,,700,,Seljord,"4022"
NSR:StopPlace:20084,20084,Flatdal skule,59.567815,8.566989,,sann,,,,700,,Seljord,"4022"
NSR:StopPlace:20134,20134,Fløti,59.543785,8.616261,,sann,,,,700,,Seljord,"4022"
NSR:StopPlace:20217,20217,Hokkedalen,59.557551,8.583012,,sann,,,,700,,Seljord,"4022"
NSR:StopPlace:20303,20303,Meås,59.460939,8.575005,,sann,,,,700,,Seljord,"4022"
NSR:StopPlace:20306,20306,Meås nord,59.456321,8.563633,,sann,,,,700,,Seljord,"4022"
NSR:StopPlace:20356,20356,Garvikstrondi camping,59.431811,8.738861,,sann,,,,700,,Seljord,"4022"
NSR:StopPlace:20360,20360,Garvikstubben,59.438069,8.731475,,sann,,,,700,,Seljord,"4022"
NSR:StopPlace:20461,20461,Istekleiv,59.621534,8.423671,,sann,,,,700,,Seljord,"4022"
NSR:StopPlace:20510,20510,Aarbakk leet,59.653114,8.369907,,sann,,,,700,,Seljord,"4022"
NSR:StopPlace:20577,20577,Asklund,59.570959,8.562593,,sann,,,,700,,Seljord,"4022"
NSR:StopPlace:20602,20602,Lakshøl,59.500519,8.63766,,sann,,,,700,,Seljord,"4022"
NSR:StopPlace:20685,20685,Barstad bru,59.5966,8.52913,,sann,,,,700,,Seljord,"4022"
NSR:StopPlace:20717,20717,Langvenda,59.463396,8.578582,,sann,,,,700,,Seljord,"4022"
NSR:StopPlace:20785,20785,Nutheim,59.570419,8.547508,,sann,,,,700,,Seljord,"4022"
NSR:StopPlace:20798,20798,Bjørge,59.489237,8.645677,,sann,,,,700,,Seljord,"4022"
NSR:StopPlace:20949,20949,Kilen kryss,59.430024,8.740094,,sann,,,,700,,Seljord,"4022"
NSR:StopPlace:21051,21051,Tveit,59.460037,8.673272,,sann,,,,700,,Seljord,"4022"
NSR:StopPlace:21055,21055,Bråten,59.579991,8.489786,,sann,,,,700,,Seljord,"4022"
NSR:StopPlace:21173,21173,Sudbø kryss,59.645551,8.372355,,sann,,,,700,,Seljord,"4022"
NSR:StopPlace:21183,21183,Sundbø,59.554049,8.589409,,sann,,,,700,,Seljord,"4022"
NSR:StopPlace:21223,21223,Dale,59.56889,8.528393,,sann,,,,700,,Seljord,"4022"
NSR:StopPlace:21227,21227,Svartdalsvingen,59.583443,8.555775,,sann,,,,700,,Seljord,"4022"
NSR:StopPlace:21265,21265,Vadder,59.581047,8.560588,,sann,,,,700,,Seljord,"4022"
NSR:StopPlace:21313,21313,Vallar,59.491474,8.640761,,sann,,,,700,,Seljord,"4022"
NSR:StopPlace:21343,21343,Telnes,59.426241,8.79631,,sann,,,,700,,Seljord,"4022"
NSR:StopPlace:21415,21415,Vassmoen,59.538952,8.627002,,sann,,,,700,,Seljord,"4022"
NSR:StopPlace:21440,21440,Vefald,59.437483,8.858742,,sann,,,,700,,Seljord,"4022"
NSR:StopPlace:21489,21489,Trondkleiv,59.497264,8.636932,,sann,,,,700,,Seljord,"4022"
NSR:StopPlace:21645,21645,Åmotsdal skule,59.631073,8.403418,,sann,,,,700,,Seljord,"4022"
NSR:StopPlace:21661,21661,Åsanvegen,59.574033,8.559182,,sann,,,,700,,Seljord,"4022"
NSR:StopPlace:21664,21664,Åsebrekka,59.574877,8.562999,,sann,,,,700,,Seljord,"4022"
NSR:StopPlace:59186,59186,Golid,59.435501,8.614289,,sann,,,,700,,Seljord,"4022"
NSR:StopPlace:59187,59187,Øvsttveiten,59.434663,8.633353,,sann,,,,700,,Seljord,"4022"
NSR:StopPlace:59188,59188,Kvålsgard,59.434967,8.645093,,sann,,,,700,,Seljord,"4022"
NSR:StopPlace:59189,59189,Sønstveiten,59.434007,8.650986,,sann,,,,700,,Seljord,"4022"
NSR:StopPlace:59190,59190,Jamgrav,59.428204,8.665916,,sann,,,,700,,Seljord,"4022"
NSR:StopPlace:59191,59191,Gravalid,59.424595,8.663501,,sann,,,,700,,Seljord,"4022"
NSR:StopPlace:59192,59192,Fiskhøl,59.421904,8.690301,,sann,,,,700,,Seljord,"4022"
NSR:StopPlace:59193,59193,Haugland,59.422717,8.675727,,sann,,,,700,,Seljord,"4022"
NSR:StopPlace:59194,59194,Gåsdalen øvre,59.422051,8.699777,,sann,,,,700,,Seljord,"4022"
NSR:StopPlace:59195,59195,Gåsdalen nedre,59.423771,8.70645,,sann,,,,700,,Seljord,"4022"
NSR:StopPlace:59197,59197,Garvik,59.434894,8.734847,,sann,,,,700,,Seljord,"4022"
NSR:StopPlace:59198,59198,Enderjord,59.42543,8.71395,,sann,,,,700,,Seljord,"4022"
NSR:StopPlace:59199,59199,Flatland,59.474576,8.65758,,sann,,,,700,,Seljord,"4022"
NSR:StopPlace:60446,60446,Strond,59.442313,8.817163,,sann,,,,700,,Seljord,"4022"
NSR:StopPlace:60664,60664,Århus knutepunkt,59.516631,8.648673,,sann,,,,700,,Seljord,"4022"
NSR:StopPlace:60805,60805,Fjostuft,59.468922,8.693659,,sann,,,,700,,Seljord,"4022"
NSR:StopPlace:60822,60822,Holtestaulvegen,59.441307,8.840819,,sann,,,,700,,Seljord,"4022"
NSR:StopPlace:60874,60874,Eva Bull Holte museum,59.646062,8.357658,,sann,,,,700,,Seljord,"4022"
NSR:StopPlace:62041,62041,Trollebotn,59.407374,8.716499,,sann,,,,700,,Seljord,"4022"
NSR:StopPlace:62172,62172,Veltun,59.642772,8.379878,,sann,,,,700,,Seljord,"4022"
NSR:StopPlace:62174,62174,Berge,59.633172,8.398447,,sann,,,,700,,Seljord,"4022"
NSR:StopPlace:62231,62231,Trollebotn snuplass,59.404352,8.723732,,sann,,,,700,,Seljord,"4022"
NSR:StopPlace:62238,62238,Nordbygdi,59.468365,8.581738,,sann,,,,700,,Seljord,"4022"
NSR:StopPlace:62572,62572,Seljord skysstasjon,59.4801,8.633897,,sann,,,,700,,Seljord,"4022"
NSR:StopPlace:62883,62883,Heddeli,59.482817,8.61783,,sann,,,,700,,Seljord,"4022"
NSR:StopPlace:62931,62931,Brødlaus,59.485656,8.632623,,sann,,,,700,,Seljord,"4022"
NSR:StopPlace:62932,62932,Granvin Kulturhus,59.480882,8.62299,,sann,,,,700,,Seljord,"4022"
NSR:StopPlace:62933,62933,Vekanvegen,59.481218,8.628851,,sann,,,,700,,Seljord,"4022"
NSR:StopPlace:63134,63134,Rindebekken,59.65937,8.353657,,sann,,,,700,,Seljord,"4022"
NSR:StopPlace:60863,60863,Stodi,59.449582,8.740509,,sann,,,sann,700,,Seljord,"4022"
NSR:StopPlace:19558,19558,Rallevegen,59.428863,9.114873,,sann,,,,700,,Midt-Telemark,"4020"
NSR:StopPlace:19563,19563,Darrud,59.422044,9.137424,,sann,,,,700,,Midt-Telemark,"4020"
NSR:StopPlace:19616,19616,Grivimoen,59.414655,9.087245,,sann,,,,700,,Midt-Telemark,"4020"
NSR:StopPlace:19626,19626,Gropa,59.491541,9.290233,,sann,,,,700,,Midt-Telemark,"4020"
NSR:StopPlace:19627,19627,Roe,59.467174,9.300177,,sann,,,,700,,Midt-Telemark,"4020"
NSR:StopPlace:19635,19635,Roheim kryss,59.499988,9.111663,,sann,,,,700,,Midt-Telemark,"4020"
NSR:StopPlace:19680,19680,Ryntveit,59.391638,9.277726,,sann,,,,700,,Midt-Telemark,"4020"
NSR:StopPlace:19737,19737,Gunheim,59.396742,9.181995,,sann,,,,700,,Midt-Telemark,"4020"
NSR:StopPlace:19760,19760,Sagavoll,59.388737,9.164948,,sann,,,,700,,Midt-Telemark,"4020"
NSR:StopPlace:19772,19772,Sanda,59.419121,8.903548,,sann,,,,700,,Midt-Telemark,"4020"
NSR:StopPlace:19774,19774,Sanda skule,59.416703,8.902267,,sann,,,,700,,Midt-Telemark,"4020"
NSR:StopPlace:19782,19782,Gvannes,59.464798,9.299809,,sann,,,,700,,Midt-Telemark,"4020"
NSR:StopPlace:19787,19787,Gvarv Fruktlager,59.387982,9.174499,,sann,,,,700,,Midt-Telemark,"4020"
NSR:StopPlace:19791,19791,Gvarv bru,59.38752,9.169743,,sann,,,,700,,Midt-Telemark,"4020"
NSR:StopPlace:19795,19795,Gvarv kryss,59.386673,9.165183,,sann,,,,700,,Midt-Telemark,"4020"
NSR:StopPlace:19799,19799,Gvarv skole,59.387145,9.190828,,sann,,,,700,,Midt-Telemark,"4020"
NSR:StopPlace:19803,19803,Gvarv skole og Sauherad ungdomsskole,59.387643,9.188808,,sann,,,,700,,Midt-Telemark,"4020"
NSR:StopPlace:19806,19806,Sandvin,59.419611,9.073904,,sann,,,,700,,Midt-Telemark,"4020"
NSR:StopPlace:19807,19807,Gvarv stasjon,59.388853,9.177267,,sann,,,,700,,Midt-Telemark,"4020"
NSR:StopPlace:19830,19830,Erikstein,59.412631,8.94323,,sann,,,,700,,Midt-Telemark,"4020"
NSR:StopPlace:19842,19842,Espedalen,59.414234,9.013117,,sann,,,,700,,Midt-Telemark,"4020"
NSR:StopPlace:19843,19843,Sauar friskole,59.42126,9.280957,,sann,,,,700,,Midt-Telemark,"4020"
NSR:StopPlace:19844,19844,Sauherad kirke,59.421667,9.284197,,sann,,,,700,,Midt-Telemark,"4020"
NSR:StopPlace:19865,19865,Evju bygdetun,59.410496,9.162154,,sann,,,,700,,Midt-Telemark,"4020"
NSR:StopPlace:19900,19900,Farvollen,59.434113,9.31213,,sann,,,,700,,Midt-Telemark,"4020"
NSR:StopPlace:19934,19934,Skamlaus,59.388399,9.212127,,sann,,,,700,,Midt-Telemark,"4020"
NSR:StopPlace:20090,20090,Lona,59.490863,9.10066,,sann,,,,700,,Midt-Telemark,"4020"
NSR:StopPlace:20091,20091,Flatin,59.408903,9.105724,,sann,,,,700,,Midt-Telemark,"4020"
NSR:StopPlace:20106,20106,Hem,59.477954,9.296288,,sann,,,,700,,Midt-Telemark,"4020"
NSR:StopPlace:20142,20142,Folkestad Bustadfelt,59.444966,9.080694,,sann,,,,700,,Midt-Telemark,"4020"
NSR:StopPlace:20143,20143,Folkestad skule,59.436525,9.046218,,sann,,,,700,,Midt-Telemark,"4020"
NSR:StopPlace:20150,20150,Forberg,59.412009,8.998179,,sann,,,,700,,Midt-Telemark,"4020"
NSR:StopPlace:20200,20200,Hofsrudvegen,59.427752,9.299109,,sann,,,,700,,Midt-Telemark,"4020"
NSR:StopPlace:20222,20222,Frivoll,59.41516,9.055955,,sann,,,,700,,Midt-Telemark,"4020"
NSR:StopPlace:20227,20227,Holtan,59.39263,9.227346,,sann,,,,700,,Midt-Telemark,"4020"
NSR:StopPlace:20249,20249,Holte,59.337779,9.21242,,sann,,,,700,,Midt-Telemark,"4020"
NSR:StopPlace:20265,20265,Meieritorget,59.41437,9.06154,,sann,,,,700,,Midt-Telemark,"4020"
NSR:StopPlace:20269,20269,Holtsås,59.460757,9.327804,,sann,,,,700,,Midt-Telemark,"4020"
NSR:StopPlace:20272,20272,Holtsås kryss,59.46161,9.326277,,sann,,,,700,,Midt-Telemark,"4020"
NSR:StopPlace:20315,20315,Midtbygda,59.413486,9.069192,,sann,,,,700,,Midt-Telemark,"4020"
NSR:StopPlace:20318,20318,Midtbygda kryss,59.412523,9.071119,,sann,,,,700,,Midt-Telemark,"4020"
NSR:StopPlace:20361,20361,Moen,59.403969,9.308396,,sann,,,,700,,Midt-Telemark,"4020"
NSR:StopPlace:20368,20368,Universitetet USN Bø,59.409058,9.059909,,sann,,,,700,,Midt-Telemark,"4020"
NSR:StopPlace:20381,20381,Høgsrud,59.507725,9.28783,,sann,,,,700,,Midt-Telemark,"4020"
NSR:StopPlace:20384,20384,Høgstad,59.416353,9.269438,,sann,,,,700,,Midt-Telemark,"4020"
NSR:StopPlace:20438,20438,Gjernes,59.353565,9.194627,,sann,,,,700,,Midt-Telemark,"4020"
NSR:StopPlace:20468,20468,Folkvang,59.415909,9.038716,,sann,,,,700,,Midt-Telemark,"4020"
NSR:StopPlace:20479,20479,Myrkås,59.435294,9.303969,,sann,,,,700,,Midt-Telemark,"4020"
NSR:StopPlace:20519,20519,Akkerhaugen,59.395117,9.251194,,sann,,,,700,,Midt-Telemark,"4020"
NSR:StopPlace:20522,20522,Akkerhaugen Reset fv. 360,59.398421,9.243675,,sann,,,,700,,Midt-Telemark,"4020"
NSR:StopPlace:20525,20525,Akkerhaugen Reset fv. 553,59.397413,9.244075,,sann,,,,700,,Midt-Telemark,"4020"
NSR:StopPlace:20527,20527,Akkerhaugen bru,59.393533,9.261838,,sann,,,,700,,Midt-Telemark,"4020"
NSR:StopPlace:20537,20537,Kultan,59.440052,9.075056,,sann,,,,700,,Midt-Telemark,"4020"
NSR:StopPlace:20556,20556,Årnes søndre,59.362371,9.18422,,sann,,,,700,,Midt-Telemark,"4020"
NSR:StopPlace:20576,20576,Nautesund,59.460536,9.307547,,sann,,,,700,,Midt-Telemark,"4020"
NSR:StopPlace:20605,20605,Nes kryss,59.38403,9.204789,,sann,,,,700,,Midt-Telemark,"4020"
NSR:StopPlace:20658,20658,Langkås,59.467112,9.09455,,sann,,,,700,,Midt-Telemark,"4020"
NSR:StopPlace:20661,20661,Langkåsbyen,59.410963,9.077024,,sann,,,,700,,Midt-Telemark,"4020"
NSR:StopPlace:20694,20694,Nordagutu,59.416448,9.322703,,sann,,,,700,,Midt-Telemark,"4020"
NSR:StopPlace:20697,20697,Nordagutu skole,59.421846,9.322924,,sann,,,,700,,Midt-Telemark,"4020"
NSR:StopPlace:20722,20722,Berge,59.414332,9.164851,,sann,,,,700,,Midt-Telemark,"4020"
NSR:StopPlace:20724,20724,Bergenvegen,59.42281,9.052839,,sann,,,,700,,Midt-Telemark,"4020"
NSR:StopPlace:20727,20727,Bergestig,59.408243,8.94052,,sann,,,,700,,Midt-Telemark,"4020"
NSR:StopPlace:20733,20733,Bergevegen,59.472144,9.299012,,sann,,,,700,,Midt-Telemark,"4020"
NSR:StopPlace:20749,20749,Norsjø hotell,59.394567,9.254387,,sann,,,,700,,Midt-Telemark,"4020"
NSR:StopPlace:20772,20772,Bikkjedalen,59.411354,9.170826,,sann,,,,700,,Midt-Telemark,"4020"
NSR:StopPlace:20876,20876,Bordvegen,59.406993,9.067484,,sann,,,,700,,Midt-Telemark,"4020"
NSR:StopPlace:20902,20902,Borgja terrasse,59.401268,9.073562,,sann,,,,700,,Midt-Telemark,"4020"
NSR:StopPlace:20938,20938,Brattestå,59.394353,9.15669,,sann,,,,700,,Midt-Telemark,"4020"
NSR:StopPlace:20957,20957,Oterholt,59.430046,9.046753,,sann,,,,700,,Midt-Telemark,"4020"
NSR:StopPlace:20971,20971,Kise,59.419334,9.155246,,sann,,,,700,,Midt-Telemark,"4020"
NSR:StopPlace:20980,20980,Breskelia kryss,59.426508,9.008301,,sann,,,,700,,Midt-Telemark,"4020"
NSR:StopPlace:21069,21069,Klevar,59.456317,9.302029,,sann,,,,700,,Midt-Telemark,"4020"
NSR:StopPlace:21071,21071,Hengebrua,59.407543,8.957929,,sann,,,,700,,Midt-Telemark,"4020"
NSR:StopPlace:21072,21072,Klevar kryss fv. 555,59.46086,9.308219,,sann,,,,700,,Midt-Telemark,"4020"
NSR:StopPlace:21133,21133,Bø Camping,59.444185,9.063249,,sann,,,,700,,Midt-Telemark,"4020"
NSR:StopPlace:21135,21135,Bø Gullbring,59.407473,9.059305,,sann,,,,700,,Midt-Telemark,"4020"
NSR:StopPlace:21138,21138,Sommarland personal,59.448247,9.069782,,sann,,,,700,,Midt-Telemark,"4020"
NSR:StopPlace:21139,21139,Konglevegen kryss,59.39979,9.074879,,sann,,,,700,,Midt-Telemark,"4020"
NSR:StopPlace:21143,21143,Bø kommunehus,59.413389,9.066507,,sann,,,,700,,Midt-Telemark,"4020"
NSR:StopPlace:21148,21148,Bø skule,59.413681,9.07806,,sann,,,,700,,Midt-Telemark,"4020"
NSR:StopPlace:21153,21153,Bø stasjon,59.409554,9.069495,,sann,,,,700,,Midt-Telemark,"4020"
NSR:StopPlace:21158,21158,Bø ungdomsskule,59.41623,9.052345,,sann,,,,700,,Midt-Telemark,"4020"
NSR:StopPlace:21161,21161,Bø vgs.,59.41814,9.060556,,sann,,,,700,,Midt-Telemark,"4020"
NSR:StopPlace:21181,21181,Ufs,59.456898,9.072406,,sann,,,,700,,Midt-Telemark,"4020"
NSR:StopPlace:21190,21190,Sunds,59.449199,9.325329,,sann,,,,700,,Midt-Telemark,"4020"
NSR:StopPlace:21194,21194,Uleberga,59.483953,9.2934,,sann,,,,700,,Midt-Telemark,"4020"
NSR:StopPlace:21238,21238,Svevali,59.416792,9.323629,,sann,,,,700,,Midt-Telemark,"4020"
NSR:StopPlace:21278,21278,Skruverud,59.413027,8.95623,,sann,,,,700,,Midt-Telemark,"4020"
NSR:StopPlace:21303,21303,Valen,59.401826,9.300304,,sann,,,,700,,Midt-Telemark,"4020"
NSR:StopPlace:21308,21308,Valen barnehage,59.422289,9.106516,,sann,,,,700,,Midt-Telemark,"4020"
NSR:StopPlace:21336,21336,Teksten,59.380147,9.175464,,sann,,,,700,,Midt-Telemark,"4020"
NSR:StopPlace:21339,21339,Telemarkshallen,59.450616,9.069235,,sann,,,,700,,Midt-Telemark,"4020"
NSR:StopPlace:21355,21355,Snippen,59.414468,9.139138,,sann,,,,700,,Midt-Telemark,"4020"
NSR:StopPlace:21413,21413,Soterud,59.420261,8.913393,,sann,,,,700,,Midt-Telemark,"4020"
NSR:StopPlace:21416,21416,Sperrud Beverøya,59.409696,9.085098,,sann,,,,700,,Midt-Telemark,"4020"
NSR:StopPlace:21421,21421,Tjønntveit,59.444159,9.073366,,sann,,,,700,,Midt-Telemark,"4020"
NSR:StopPlace:21424,21424,Tjønnås,59.382856,9.041099,,sann,,,,700,,Midt-Telemark,"4020"
NSR:StopPlace:21427,21427,Vatnar ungdomssenter,59.495396,9.104147,,sann,,,,700,,Midt-Telemark,"4020"
NSR:StopPlace:21436,21436,Tollhaugen,59.428092,9.02583,,sann,,,,700,,Midt-Telemark,"4020"
NSR:StopPlace:21455,21455,Vegheimtoppen,59.406228,9.253716,,sann,,,,700,,Midt-Telemark,"4020"
NSR:StopPlace:21467,21467,Veirud,59.399475,9.051513,,sann,,,,700,,Midt-Telemark,"4020"
NSR:StopPlace:21521,21521,Verpe kryss,59.421757,8.899352,,sann,,,,700,,Midt-Telemark,"4020"
NSR:StopPlace:21528,21528,Stokland kryss,59.498092,9.105099,,sann,,,,700,,Midt-Telemark,"4020"
NSR:StopPlace:21533,21533,Brenna,59.406193,9.129896,,sann,,,,700,,Midt-Telemark,"4020"
NSR:StopPlace:21563,21563,Vreim,59.425902,8.995515,,sann,,,,700,,Midt-Telemark,"4020"
NSR:StopPlace:21623,21623,Vinbekkvegen,59.430687,9.074879,,sann,,,,700,,Midt-Telemark,"4020"
NSR:StopPlace:21649,21649,Årak,59.42045,8.974757,,sann,,,,700,,Midt-Telemark,"4020"
NSR:StopPlace:21653,21653,Aarnes,59.366795,9.179584,,sann,,,,700,,Midt-Telemark,"4020"
NSR:StopPlace:21654,21654,Årås,59.347325,9.207118,,sann,,,,700,,Midt-Telemark,"4020"
NSR:StopPlace:21667,21667,Åsgrav,59.411541,9.11531,,sann,,,,700,,Midt-Telemark,"4020"
NSR:StopPlace:21695,21695,Øverbømoen,59.424151,8.878077,,sann,,,,700,,Midt-Telemark,"4020"
NSR:StopPlace:58686,58686,Glenna,59.416221,9.025313,,sann,,,,700,,Midt-Telemark,"4020"
NSR:StopPlace:6034,6034,Bø sjukeheim,59.414537,9.06963,,sann,,,,700,,Midt-Telemark,"4020"
NSR:StopPlace:61248,61248,Gymnasbakken,59.414453,9.062236,,sann,,,,700,,Midt-Telemark,"4020"
NSR:StopPlace:62805,62805,Noradalsvegen,59.370268,9.176937,,sann,,,,700,,Midt-Telemark,"4020"
NSR:StopPlace:63159,63159,Nordbøåsen,59.406186,9.025419,,sann,,,,700,,Midt-Telemark,"4020"
NSR:StopPlace:63837,63837,Kåsinvegen,59.405847,9.075826,,sann,,,,700,,Midt-Telemark,"4020"
NSR:StopPlace:63838,63838,Breisås studentboliger,59.403258,9.069418,,sann,,,,700,,Midt-Telemark,"4020"
NSR:StopPlace:64059,64059,Hørte Furuheimvegen,59.421854,9.130478,,sann,,,,700,,Midt-Telemark,"4020"
NSR:StopPlace:6475,6475,Nordbøbergja kryss,59.408942,9.032068,,sann,,,,700,,Midt-Telemark,"4020"
NSR:StopPlace:20407,20407,Hørte kryss,59.422159,9.131082,Krysset på Fylkesveien,sann,,,,700,,Midt-Telemark,"4020"
NSR:StopPlace:19537,19537,Porsgrunn porselen,59.141669,9.639942,,sann,,,,700,,Porsgrunn,"4001"
NSR:StopPlace:19539,19539,Grava,59.081417,9.683,,sann,,,,700,,Porsgrunn,"4001"
NSR:StopPlace:19551,19551,Prestealleen,59.110669,9.702564,,sann,,,,700,,Porsgrunn,"4001"
NSR:StopPlace:19552,19552,Prestsætre,59.177983,9.773618,,sann,,,,700,,Porsgrunn,"4001"
NSR:StopPlace:19581,19581,Grenland Folkehøyskole,59.115486,9.684759,,sann,,,,700,,Porsgrunn,"4001"
NSR:StopPlace:19637,19637,Down Town Bymuseet,59.135808,9.640542,,sann,,,,700,,Porsgrunn,"4001"
NSR:StopPlace:19639,19639,Rolighetsvegen,59.130477,9.630423,,sann,,,,700,,Porsgrunn,"4001"
NSR:StopPlace:19646,19646,Osebrogata,59.143546,9.658874,,sann,,,,700,,Porsgrunn,"4001"
NSR:StopPlace:19661,19661,Vadbakken Powerhouse,59.138382,9.631188,,sann,,,,700,,Porsgrunn,"4001"
NSR:StopPlace:19683,19683,Døvikmoen kryss,59.107441,9.719431,,sann,,,,700,,Porsgrunn,"4001"
NSR:StopPlace:19686,19686,Døvikstrand,59.105691,9.720934,,sann,,,,700,,Porsgrunn,"4001"
NSR:StopPlace:19701,19701,Rødsåsen,59.118921,9.671308,,sann,,,,700,,Porsgrunn,"4001"
NSR:StopPlace:19702,19702,Grønli,59.125776,9.655238,,sann,,,,700,,Porsgrunn,"4001"
NSR:StopPlace:19705,19705,Eidangerbakken,59.125449,9.695386,,sann,,,,700,,Porsgrunn,"4001"
NSR:StopPlace:19710,19710,Eidangervegen,59.060365,9.692076,,sann,,,,700,,Porsgrunn,"4001"
NSR:StopPlace:19726,19726,Røra badeplass,59.087384,9.718165,,sann,,,,700,,Porsgrunn,"4001"
NSR:StopPlace:19744,19744,Røtuabakken,59.103283,9.719403,,sann,,,,700,,Porsgrunn,"4001"
NSR:StopPlace:19751,19751,Saga,59.104508,9.804212,,sann,,,,700,,Porsgrunn,"4001"
NSR:StopPlace:19757,19757,Gunneklev,59.121085,9.649858,,sann,,,,700,,Porsgrunn,"4001"
NSR:StopPlace:19761,19761,Gunneklevgata,59.115166,9.649203,,sann,,,,700,,Porsgrunn,"4001"
NSR:StopPlace:19777,19777,Sandbakken,59.150493,9.660861,,sann,,,,700,,Porsgrunn,"4001"
NSR:StopPlace:19840,19840,Saturnvegen,59.088197,9.686669,,sann,,,,700,,Porsgrunn,"4001"
NSR:StopPlace:19845,19845,Hagen,59.114304,9.800719,,sann,,,,700,,Porsgrunn,"4001"
NSR:StopPlace:19857,19857,Seljevegen Pans veg,59.07907,9.679153,,sann,,,,700,,Porsgrunn,"4001"
NSR:StopPlace:19879,19879,Setrevegen,59.060611,9.688427,,sann,,,,700,,Porsgrunn,"4001"
NSR:StopPlace:19887,19887,Siljan,59.156609,9.743387,,sann,,,,700,,Porsgrunn,"4001"
NSR:StopPlace:19894,19894,Siljan saga,59.158707,9.748008,,sann,,,,700,,Porsgrunn,"4001"
NSR:StopPlace:19921,19921,Siriusveien,59.096845,9.674952,,sann,,,,700,,Porsgrunn,"4001"
NSR:StopPlace:19978,19978,Havna,59.090203,9.717271,,sann,,,,700,,Porsgrunn,"4001"
NSR:StopPlace:19986,19986,Fisketorget Brevik,59.052689,9.700083,,sann,,,,700,,Porsgrunn,"4001"
NSR:StopPlace:20002,20002,Skippergata,59.136062,9.643706,,sann,,,,700,,Porsgrunn,"4001"
NSR:StopPlace:20015,20015,Skjelsvik knutepunkt,59.094708,9.687965,,sann,,,,700,,Porsgrunn,"4001"
NSR:StopPlace:20016,20016,Skjelsvikskauen,59.102705,9.666696,,sann,,,,700,,Porsgrunn,"4001"
NSR:StopPlace:20041,20041,Heistad,59.076844,9.686699,,sann,,,,700,,Porsgrunn,"4001"
NSR:StopPlace:20049,20049,Fjordgata,59.114388,9.642348,,sann,,,,700,,Porsgrunn,"4001"
NSR:StopPlace:20108,20108,Flintvegen,59.106975,9.682306,,sann,,,,700,,Porsgrunn,"4001"
NSR:StopPlace:20128,20128,Flåtten,59.122692,9.658805,,sann,,,,700,,Porsgrunn,"4001"
NSR:StopPlace:20129,20129,Luna Ring,59.094306,9.67852,,sann,,,,700,,Porsgrunn,"4001"
NSR:StopPlace:20137,20137,Lunde,59.13949,9.731821,,sann,,,,700,,Porsgrunn,"4001"
NSR:StopPlace:20138,20138,Fløtterø,59.153709,9.802004,,sann,,,,700,,Porsgrunn,"4001"
NSR:StopPlace:20157,20157,Fosse,59.141797,9.734692,,sann,,,,700,,Porsgrunn,"4001"
NSR:StopPlace:20163,20163,Lundedalen,59.084097,9.682673,,sann,,,,700,,Porsgrunn,"4001"
NSR:StopPlace:20172,20172,Lundekroken,59.084681,9.679821,,sann,,,,700,,Porsgrunn,"4001"
NSR:StopPlace:20181,20181,Hjortestien,59.107203,9.672463,,sann,,,,700,,Porsgrunn,"4001"
NSR:StopPlace:20202,20202,Frednes,59.133715,9.644438,,sann,,,,700,,Porsgrunn,"4001"
NSR:StopPlace:20209,20209,Løke bru,59.165132,9.810936,,sann,,,,700,,Porsgrunn,"4001"
NSR:StopPlace:20210,20210,Frednesøya,59.135641,9.636136,,sann,,,,700,,Porsgrunn,"4001"
NSR:StopPlace:20211,20211,Hogstad,59.163947,9.752787,,sann,,,,700,,Porsgrunn,"4001"
NSR:StopPlace:20218,20218,Lønnebakkveien,59.094086,9.806291,,sann,,,,700,,Porsgrunn,"4001"
NSR:StopPlace:20230,20230,Løvsjø,59.08717,9.68645,,sann,,,,700,,Porsgrunn,"4001"
NSR:StopPlace:20257,20257,Meieritorvet,59.138775,9.648544,,sann,,,,700,,Porsgrunn,"4001"
NSR:StopPlace:20286,20286,Furulund,59.056424,9.690976,,sann,,,,700,,Porsgrunn,"4001"
NSR:StopPlace:20320,20320,Gamle Heistad skole,59.075706,9.68353,,sann,,,,700,,Porsgrunn,"4001"
NSR:StopPlace:20335,20335,Gamle postveg,59.089556,9.688622,,sann,,,,700,,Porsgrunn,"4001"
NSR:StopPlace:20385,20385,Moheim,59.123274,9.70677,,sann,,,,700,,Porsgrunn,"4001"
NSR:StopPlace:20445,20445,Mule,59.101484,9.696846,,sann,,,,700,,Porsgrunn,"4001"
NSR:StopPlace:20473,20473,Universitetet USN Porsgrunn,59.135382,9.669816,,sann,,,,700,,Porsgrunn,"4001"
NSR:StopPlace:20544,20544,Kulturskolen Aallsgate,59.138281,9.653263,,sann,,,,700,,Porsgrunn,"4001"
NSR:StopPlace:20578,20578,Kvestad,59.13701,9.72987,,sann,,,,700,,Porsgrunn,"4001"
NSR:StopPlace:20580,20580,Ligata,59.147201,9.659616,,sann,,,,700,,Porsgrunn,"4001"
NSR:StopPlace:20581,20581,Kvestadåsen,59.13458,9.727892,,sann,,,,700,,Porsgrunn,"4001"
NSR:StopPlace:20585,20585,Kåsa,59.17448,9.763984,,sann,,,,700,,Porsgrunn,"4001"
NSR:StopPlace:20621,20621,Solliavegen,59.085593,9.808477,,sann,,,,700,,Porsgrunn,"4001"
NSR:StopPlace:20624,20624,Langangen gård,59.100915,9.807893,,sann,,,,700,,Porsgrunn,"4001"
NSR:StopPlace:20626,20626,Langangen kirke,59.09121,9.79297,,sann,,,,700,,Porsgrunn,"4001"
NSR:StopPlace:20628,20628,Bakkedammen,59.108947,9.656536,,sann,,,,700,,Porsgrunn,"4001"
NSR:StopPlace:20629,20629,Langangen skole,59.082336,9.810445,,sann,,,,700,,Porsgrunn,"4001"
NSR:StopPlace:20631,20631,Langangen torv,59.089134,9.80274,,sann,,,,700,,Porsgrunn,"4001"
NSR:StopPlace:20635,20635,Langbrygga,59.051995,9.69915,,sann,,,,700,,Porsgrunn,"4001"
NSR:StopPlace:20671,20671,Lanner,59.107303,9.747079,,sann,,,,700,,Porsgrunn,"4001"
NSR:StopPlace:20695,20695,Leerstang,59.077545,9.7245,,sann,,,,700,,Porsgrunn,"4001"
NSR:StopPlace:20744,20744,Bergsbygda skole,59.08562,9.720199,,sann,,,,700,,Porsgrunn,"4001"
NSR:StopPlace:20747,20747,Bergsbygdaveien 357,59.093375,9.715761,,sann,,,,700,,Porsgrunn,"4001"
NSR:StopPlace:20750,20750,Bergsbygdaveien 44,59.113212,9.719101,,sann,,,,700,,Porsgrunn,"4001"
NSR:StopPlace:20773,20773,Lillegården,59.117405,9.718874,,sann,,,,700,,Porsgrunn,"4001"
NSR:StopPlace:20778,20778,Lilleholtet,59.154603,9.739696,,sann,,,,700,,Porsgrunn,"4001"
NSR:StopPlace:20800,20800,Bjørkedalen,59.147251,9.734189,,sann,,,,700,,Porsgrunn,"4001"
NSR:StopPlace:20803,20803,Bjørkedalen skole,59.145052,9.734682,,sann,,,,700,,Porsgrunn,"4001"
NSR:StopPlace:20827,20827,Nystrand,59.108083,9.700378,,sann,,,,700,,Porsgrunn,"4001"
NSR:StopPlace:20837,20837,Nøklegård,59.08158,9.826969,,sann,,,,700,,Porsgrunn,"4001"
NSR:StopPlace:20851,20851,Blåklokkevegen,59.116071,9.65883,,sann,,,,700,,Porsgrunn,"4001"
NSR:StopPlace:20855,20855,Bokfinkvegen,59.116834,9.663133,,sann,,,,700,,Porsgrunn,"4001"
NSR:StopPlace:20874,20874,Oklungen,59.175591,9.810067,,sann,,,,700,,Porsgrunn,"4001"
NSR:StopPlace:20880,20880,Borgeskogen,59.154408,9.657747,,sann,,,,700,,Porsgrunn,"4001"
NSR:StopPlace:20895,20895,Olavsberget,59.112368,9.712328,,sann,,,,700,,Porsgrunn,"4001"
NSR:StopPlace:20900,20900,Borgeåsvegen,59.157362,9.662301,,sann,,,,700,,Porsgrunn,"4001"
NSR:StopPlace:20928,20928,Orionvegen,59.091762,9.685751,,sann,,,,700,,Porsgrunn,"4001"
NSR:StopPlace:20936,20936,Orrevegen,59.121522,9.694842,,sann,,,,700,,Porsgrunn,"4001"
NSR:StopPlace:20947,20947,Brattås skole,59.096214,9.68433,,sann,,,,700,,Porsgrunn,"4001"
NSR:StopPlace:20962,20962,Brekka,59.133223,9.655773,,sann,,,,700,,Porsgrunn,"4001"
NSR:StopPlace:20968,20968,Kirstistien,59.124958,9.643054,,sann,,,,700,,Porsgrunn,"4001"
NSR:StopPlace:20986,20986,Brevik kulturhus,59.054209,9.698593,,sann,,,,700,,Porsgrunn,"4001"
NSR:StopPlace:20988,20988,Brevik stasjon,59.051538,9.692591,,sann,,,,700,,Porsgrunn,"4001"
NSR:StopPlace:20992,20992,Breviksbrua,59.051943,9.694968,,sann,,,,700,,Porsgrunn,"4001"
NSR:StopPlace:20998,20998,Kjenndalen,59.145421,9.799314,,sann,,,,700,,Porsgrunn,"4001"
NSR:StopPlace:21000,21000,Plassen,59.16026,9.808663,,sann,,,,700,,Porsgrunn,"4001"
NSR:StopPlace:21049,21049,Brånan,59.090559,9.689861,,sann,,,,700,,Porsgrunn,"4001"
NSR:StopPlace:21076,21076,Tveitanvegen,59.117989,9.666656,,sann,,,,700,,Porsgrunn,"4001"
NSR:StopPlace:21077,21077,Klevstrand,59.115916,9.651711,,sann,,,,700,,Porsgrunn,"4001"
NSR:StopPlace:21078,21078,Buer,59.171004,9.758276,,sann,,,,700,,Porsgrunn,"4001"
NSR:StopPlace:21120,21120,Knarrdalstrand,59.133962,9.623035,,sann,,,,700,,Porsgrunn,"4001"
NSR:StopPlace:21125,21125,Bånnåsen,59.136913,9.659312,,sann,,,,700,,Porsgrunn,"4001"
NSR:StopPlace:21126,21126,Kokkersvold midtre,59.097618,9.778094,,sann,,,,700,,Porsgrunn,"4001"
NSR:StopPlace:21128,21128,Båthavna,59.109934,9.717342,,sann,,,,700,,Porsgrunn,"4001"
NSR:StopPlace:21129,21129,Kokkersvold nord,59.099297,9.774247,,sann,,,,700,,Porsgrunn,"4001"
NSR:StopPlace:21132,21132,Kokkersvold sør,59.094385,9.783048,,sann,,,,700,,Porsgrunn,"4001"
NSR:StopPlace:21134,21134,Kollabånn,59.102438,9.719202,,sann,,,,700,,Porsgrunn,"4001"
NSR:StopPlace:21144,21144,Kjøyavegen,59.092314,9.797009,,sann,,,,700,,Porsgrunn,"4001"
NSR:StopPlace:21147,21147,Korpelivegen,59.112485,9.661983,,sann,,,,700,,Porsgrunn,"4001"
NSR:StopPlace:21163,21163,Tveten skole,59.117125,9.696961,,sann,,,,700,,Porsgrunn,"4001"
NSR:StopPlace:21200,21200,Cochsgate,59.057707,9.699146,,sann,,,,700,,Porsgrunn,"4001"
NSR:StopPlace:21229,21229,Uranusvegen Brattås,59.095768,9.674173,,sann,,,,700,,Porsgrunn,"4001"
NSR:StopPlace:21247,21247,Utsikten,59.153558,9.660597,,sann,,,,700,,Porsgrunn,"4001"
NSR:StopPlace:21268,21268,Skrapeklev,59.106473,9.65884,,sann,,,,700,,Porsgrunn,"4001"
NSR:StopPlace:21276,21276,Skrubbedalsvegen,59.082126,9.678459,,sann,,,,700,,Porsgrunn,"4001"
NSR:StopPlace:21283,21283,Skrukkerødvegen,59.129652,9.65365,,sann,,,,700,,Porsgrunn,"4001"
NSR:StopPlace:21286,21286,Sætresvingen,59.170464,9.812989,,sann,,,,700,,Porsgrunn,"4001"
NSR:StopPlace:21291,21291,Sølverød,59.115731,9.690599,,sann,,,,700,,Porsgrunn,"4001"
NSR:StopPlace:21316,21316,Tangenvegen,59.064193,9.690331,,sann,,,,700,,Porsgrunn,"4001"
NSR:StopPlace:21337,21337,Smihaugvegen,59.128131,9.651125,,sann,,,,700,,Porsgrunn,"4001"
NSR:StopPlace:21340,21340,Valler,59.12707,9.690159,,sann,,,,700,,Porsgrunn,"4001"
NSR:StopPlace:21354,21354,Vallermyrene,59.130135,9.685223,,sann,,,,700,,Porsgrunn,"4001"
NSR:StopPlace:21377,21377,Solli,59.139209,9.795124,,sann,,,,700,,Porsgrunn,"4001"
NSR:StopPlace:21380,21380,Solli gamle skole,59.141059,9.797053,,sann,,,,700,,Porsgrunn,"4001"
NSR:StopPlace:21389,21389,Sollibakken,59.131554,9.793892,,sann,,,,700,,Porsgrunn,"4001"
NSR:StopPlace:21393,21393,Solliplassen,59.135303,9.791421,,sann,,,,700,,Porsgrunn,"4001"
NSR:StopPlace:21399,21399,Tjernløkka,59.129459,9.61593,,sann,,,,700,,Porsgrunn,"4001"
NSR:StopPlace:21414,21414,Tjønnsrud nord,59.131212,9.722963,,sann,,,,700,,Porsgrunn,"4001"
NSR:StopPlace:21418,21418,Tjønnsrud sør,59.12954,9.720577,,sann,,,,700,,Porsgrunn,"4001"
NSR:StopPlace:21442,21442,Stamland,59.082927,9.728986,,sann,,,,700,,Porsgrunn,"4001"
NSR:StopPlace:21446,21446,Tollskogvegen,59.132979,9.677563,,sann,,,,700,,Porsgrunn,"4001"
NSR:StopPlace:21447,21447,Stasjonsvegen,59.123296,9.693224,,sann,,,,700,,Porsgrunn,"4001"
NSR:StopPlace:21458,21458,Torggata,59.113522,9.644322,,sann,,,,700,,Porsgrunn,"4001"
NSR:StopPlace:21468,21468,Torskebergvegen,59.051748,9.694254,,sann,,,,700,,Porsgrunn,"4001"
NSR:StopPlace:21505,21505,Venusvegen,59.097223,9.678683,,sann,,,,700,,Porsgrunn,"4001"
NSR:StopPlace:21507,21507,Stigen,59.120494,9.662189,,sann,,,,700,,Porsgrunn,"4001"
NSR:StopPlace:21526,21526,Versvik,59.150223,9.738011,,sann,,,,700,,Porsgrunn,"4001"
NSR:StopPlace:21537,21537,Vissevåg,59.096974,9.719575,,sann,,,,700,,Porsgrunn,"4001"
NSR:StopPlace:21584,21584,Stridsklevsenteret,59.110337,9.665981,,sann,,,,700,,Porsgrunn,"4001"
NSR:StopPlace:21594,21594,Våtekleiv nord,59.126381,9.715999,,sann,,,,700,,Porsgrunn,"4001"
NSR:StopPlace:21596,21596,Våtekleiv sør,59.124938,9.713214,,sann,,,,700,,Porsgrunn,"4001"
NSR:StopPlace:21597,21597,Strømtangen,59.051108,9.695334,,sann,,,,700,,Porsgrunn,"4001"
NSR:StopPlace:21606,21606,Wiersdalen nord,59.126984,9.795947,,sann,,,,700,,Porsgrunn,"4001"
NSR:StopPlace:21609,21609,Wiersdalen sør,59.121178,9.798491,,sann,,,,700,,Porsgrunn,"4001"
NSR:StopPlace:21624,21624,Ytre Heistadveg,59.059875,9.695665,,sann,,,,700,,Porsgrunn,"4001"
NSR:StopPlace:21647,21647,Ånnerødkrysset,59.135809,9.625893,,sann,,,,700,,Porsgrunn,"4001"
NSR:StopPlace:21682,21682,Ønna,59.106634,9.801788,,sann,,,,700,,Porsgrunn,"4001"
NSR:StopPlace:21684,21684,Ørstveit,59.100346,9.691672,,sann,,,,700,,Porsgrunn,"4001"
NSR:StopPlace:21689,21689,Ørvik,59.069347,9.686834,,sann,,,,700,,Porsgrunn,"4001"
NSR:StopPlace:21694,21694,Øvaldvegen,59.105498,9.70066,,sann,,,,700,,Porsgrunn,"4001"
NSR:StopPlace:21705,21705,Øyekast,59.129942,9.641959,,sann,,,,700,,Porsgrunn,"4001"
NSR:StopPlace:59367,59367,Vinjesgate,59.113179,9.653805,,sann,,,,700,,Porsgrunn,"4001"
NSR:StopPlace:62001,62001,Rød,59.084418,9.72075,,sann,,,,700,,Porsgrunn,"4001"
NSR:StopPlace:62002,62002,Vissevåg Kula,59.100243,9.718941,,sann,,,,700,,Porsgrunn,"4001"
NSR:StopPlace:62263,62263,Breidablikk,59.155097,9.661226,,sann,,,,700,,Porsgrunn,"4001"
NSR:StopPlace:62893,62893,Enger,59.126261,9.68959,,sann,,,,700,,Porsgrunn,"4001"
NSR:StopPlace:19812,19812,Sandøya ferjekai,59.045945,9.728723,,sann,,,,1000,,Porsgrunn,"4001"
NSR:StopPlace:20821,20821,Bjørkøya brygge,59.031708,9.748183,,sann,,,,1000,,Porsgrunn,"4001"
NSR:StopPlace:20983,20983,Brevik ferjekai,59.051173,9.697395,,sann,,,,1000,,Porsgrunn,"4001"
NSR:StopPlace:19533,19533,Pors stadion,59.151486,9.64102,,sann,,,sann,700,,Porsgrunn,"4001"
NSR:StopPlace:19542,19542,Porsgrunn Kammerherreløkka,59.140421,9.65813,,sann,,,sann,700,,Porsgrunn,"4001"
NSR:StopPlace:19633,19633,Down Town Franklintorget,59.138382,9.64403,,sann,,,sann,700,,Porsgrunn,"4001"
NSR:StopPlace:20144,20144,Herøya Industripark,59.121908,9.631134,,sann,,,sann,700,,Porsgrunn,"4001"
NSR:StopPlace:20826,20826,Bjørndalen,59.147827,9.641517,,sann,,,sann,700,,Porsgrunn,"4001"
NSR:StopPlace:21155,21155,Tveten,59.117349,9.698868,,sann,,,sann,700,,Porsgrunn,"4001"
NSR:StopPlace:21258,21258,Sykehuset Porsgrunn,59.130699,9.656098,,sann,,,sann,700,,Porsgrunn,"4001"
NSR:StopPlace:21480,21480,Vemmern,59.144809,9.641246,,sann,,,sann,700,,Porsgrunn,"4001"
NSR:StopPlace:20011,20011,Skjelsvikdalen,59.099065,9.683546,Stopp ved E18,sann,,,,700,,Porsgrunn,"4001"
NSR:StopPlace:22875,22875,Åmli busstasjon,58.76458,8.482939,,sann,,,,700,,,
NSR:StopPlace:22878,22878,Åmli sentrum,58.76934,8.485754,,sann,,,,700,,,
NSR:StopPlace:23219,23219,Øy,58.882559,8.581406,,sann,,,,700,,,
NSR:StopPlace:23247,23247,Katteråskrysset,58.850918,8.573051,,sann,,,,700,,,
NSR:StopPlace:24622,24622,Seljås,58.805788,8.519487,,sann,,,,700,,,
NSR:StopPlace:24948,24948,Bjorevja,58.90413,8.561091,,sann,,,,700,,,
NSR:StopPlace:24980,24980,Fiskvatn,58.840224,8.566212,,sann,,,,700,,,
NSR:StopPlace:25489,25489,Gjøvdalskrysset,58.800777,8.517225,,sann,,,,700,,,
NSR:StopPlace:58649,58649,Skulekleiva,58.774764,8.493448,,sann,,,,700,,,
NSR:StopPlace:60768,60768,Breiung,58.891932,8.569598,,sann,,,,700,,,
